{"type":"FeatureCollection","features":[{"type":"Feature","properties":{"genre":"Trade cards","url":"http://devsceti.library.upenn.edu/kaplan_map/CityGalleries/web/tc_br24s7_1r_web.jpg","address":"Albany, NY","name":"Daniel Bachrach: Fancy Goods","tiff_locat":"tc_br24s7_1r.tif"},"geometry":{"type":"Point","coordinates":[-73.756229,42.652576]}},{"type":"Feature","properties":{"genre":"Trade cards","url":"http://devsceti.library.upenn.edu/kaplan_map/CityGalleries/web/tc_br32s3_1r_web.jpg","address":"Akron, OH","name":"L. Schloss & Co.: Star Clothing House","tiff_locat":"tc_br32s3_1r.tif"},"geometry":{"type":"Point","coordinates":[-81.519007,41.081437]}},{"type":"Feature","properties":{"genre":"Trade cards","url":"http://devsceti.library.upenn.edu/kaplan_map/CityGalleries/web/tc_br15s19_1r_web.jpg","address":"Minneapolis, MN","name":"Loewenstine & Co.: One Price Clothing House","tiff_locat":"tc_br15s19_1r.tif"},"geometry":{"type":"Point","coordinates":[-93.263838,44.979967]}},{"type":"Feature","properties":{"genre":"Trade cards","url":"http://devsceti.library.upenn.edu/kaplan_map/CityGalleries/web/tc_br31s25_1r_web.jpg","address":"Syracuse, NY","name":"S. Rosenbloom & Sons: Boot and Shoe Dealers","tiff_locat":"tc_br31s25_1r.tif"},"geometry":{"type":"Point","coordinates":[-76.14742,43.048118]}},{"type":"Feature","properties":{"genre":"Trade cards","url":"http://devsceti.library.upenn.edu/kaplan_map/CityGalleries/web/tc_br17s16_2r_web.jpg","address":"Jersey City, NJ","name":"Max Stadler & Co.: Clothiers","tiff_locat":"tc_br17s16_2r.tif"},"geometry":{"type":"Point","coordinates":[-74.07764,40.72816]}},{"type":"Feature","properties":{"genre":"Trade cards","url":"http://devsceti.library.upenn.edu/kaplan_map/CityGalleries/web/tc_br27s24_2r_web.jpg","address":"New York, NY","name":"W. Jacobs: Fine Boots and Shoes","tiff_locat":"tc_br27s24_2r.tif"},"geometry":{"type":"Point","coordinates":[-74.00597,40.714269]}},{"type":"Feature","properties":{"genre":"Trade cards","url":"http://devsceti.library.upenn.edu/kaplan_map/CityGalleries/web/tc_br4s23_1r_web.jpg","address":"Galveston, TX","name":"Blessing & Bro.: Art and Variety Depot","tiff_locat":"tc_br4s23_1r.tif"},"geometry":{"type":"Point","coordinates":[-94.797698,29.301347]}},{"type":"Feature","properties":{"genre":"Trade cards","url":"http://devsceti.library.upenn.edu/kaplan_map/CityGalleries/web/tc_br32s13_1r_web.jpg","address":"Cincinnati, OH","name":"Isaacs & Co.: Ladies & Gents Fine Boots and Shoes","tiff_locat":"tc_br32s13_1r.tif"},"geometry":{"type":"Point","coordinates":[-84.456887,39.161997]}},{"type":"Feature","properties":{"genre":"Trade cards","url":"http://devsceti.library.upenn.edu/kaplan_map/CityGalleries/web/tc_br39s43_4r_web.jpg","address":"Lancaster, PA","name":"Astrich Brothers': Lancaster Bazaar","tiff_locat":"tc_br39s43_4r.tif"},"geometry":{"type":"Point","coordinates":[-76.305509,40.037876]}},{"type":"Feature","properties":{"genre":"Trade cards","url":"http://devsceti.library.upenn.edu/kaplan_map/CityGalleries/web/tc_br10s8_4r_web.jpg","address":"Chicago, IL","name":"Florsheim Bros.: Fine Shoes (Button's Rave Gloss Shoe Dressing)","tiff_locat":"tc_br10s8_4r.tif"},"geometry":{"type":"Point","coordinates":[-87.650046,41.850027]}},{"type":"Feature","properties":{"genre":"Trade cards","url":"http://devsceti.library.upenn.edu/kaplan_map/CityGalleries/web/tc_br40s13_4r_web.jpg","address":"Pittsburgh, PA","name":"J. Kaufmann & Bros.: One Price Clothiers","tiff_locat":"tc_br40s13_4r.tif"},"geometry":{"type":"Point","coordinates":[-79.995888,40.440617]}},{"type":"Feature","properties":{"genre":"Trade cards","url":"http://devsceti.library.upenn.edu/kaplan_map/CityGalleries/web/tc_br15s18_4r_web.jpg","address":"Minneapolis, MN","name":"Loewenstine & Co.: One Price Clothing House","tiff_locat":"tc_br15s18_4r.tif"},"geometry":{"type":"Point","coordinates":[-93.263838,44.979967]}},{"type":"Feature","properties":{"genre":"Trade cards","url":"http://devsceti.library.upenn.edu/kaplan_map/CityGalleries/web/tc_br17s7_7r_web.jpg","address":"New Brunswick, NJ","name":"Oscar Solomon: Millinery and Fancy Goods","tiff_locat":"tc_br17s7_7r.tif"},"geometry":{"type":"Point","coordinates":[-74.451817,40.486216]}},{"type":"Feature","properties":{"genre":"Trade cards","url":"http://devsceti.library.upenn.edu/kaplan_map/CityGalleries/web/tc_br27s22_2r_web.jpg","address":"New York, NY","name":"Mrs. E. Argersinger: Fashionable Millinery Goods","tiff_locat":"tc_br27s22_2r.tif"},"geometry":{"type":"Point","coordinates":[-74.00597,40.714269]}},{"type":"Feature","properties":{"genre":"Trade cards","url":"http://devsceti.library.upenn.edu/kaplan_map/CityGalleries/web/tc_br13s37_3r_web.jpg","address":"Baltimore, MD","name":"C.N. Oehm & Son:Clothiers","tiff_locat":"tc_br13s37_3r.tif"},"geometry":{"type":"Point","coordinates":[-76.612188,39.29038]}},{"type":"Feature","properties":{"genre":"Trade cards","url":"http://devsceti.library.upenn.edu/kaplan_map/CityGalleries/web/tc_br25s26_2r_web.jpg","address":"Buffalo, NY","name":"Jacob Kauth: Musical Instruments","tiff_locat":"tc_br25s26_2r.tif"},"geometry":{"type":"Point","coordinates":[-78.878367,42.886447]}},{"type":"Feature","properties":{"genre":"Trade cards","url":"http://devsceti.library.upenn.edu/kaplan_map/CityGalleries/web/tc_br25s12_5r_web.jpg","address":"Brooklyn, NY","name":"Ph. Strauss & Co.: Clothiers and Merchant Tailors","tiff_locat":"tc_br25s12_5r.tif"},"geometry":{"type":"Point","coordinates":[-73.949576,40.650096]}},{"type":"Feature","properties":{"genre":"Trade cards","url":"http://devsceti.library.upenn.edu/kaplan_map/CityGalleries/web/tc_br13s28_1r_web.jpg","address":"Baltimore, MD","name":"I. Hamburger & Sons: Clothiers","tiff_locat":"tc_br13s28_1r.tif"},"geometry":{"type":"Point","coordinates":[-76.612188,39.29038]}},{"type":"Feature","properties":{"genre":"Trade cards","url":"http://devsceti.library.upenn.edu/kaplan_map/CityGalleries/web/tc_br27s1_3r_web.jpg","address":"New York, NY","name":"S.W. Freund: Fancy Goods, Jewelry & Corsets","tiff_locat":"tc_br27s1_3r.tif"},"geometry":{"type":"Point","coordinates":[-74.00597,40.714269]}},{"type":"Feature","properties":{"genre":"Trade cards","url":"http://devsceti.library.upenn.edu/kaplan_map/CityGalleries/web/tc_br15s18_1r_web.jpg","address":"Minneapolis, MN","name":"Loewenstine & Co.: One Price Clothing House","tiff_locat":"tc_br15s18_1r.tif"},"geometry":{"type":"Point","coordinates":[-93.263838,44.979967]}},{"type":"Feature","properties":{"genre":"Trade cards","url":"http://devsceti.library.upenn.edu/kaplan_map/CityGalleries/web/tc_br17s7_3r_web.jpg","address":"New Brunswick, NJ","name":"R. Samuels: Hats, Shirts, Collars, Cuffs, & c.","tiff_locat":"tc_br17s7_3r.tif"},"geometry":{"type":"Point","coordinates":[-74.451817,40.486216]}},{"type":"Feature","properties":{"genre":"Trade cards","url":"http://devsceti.library.upenn.edu/kaplan_map/CityGalleries/web/tc_br32s29_3r_web.jpg","address":"Cleveland, OH","name":"Steinfeld: Clothier, Tailor & Furnisher","tiff_locat":"tc_br32s29_3r.tif"},"geometry":{"type":"Point","coordinates":[-81.69541,41.499499]}},{"type":"Feature","properties":{"genre":"Trade cards","url":"http://devsceti.library.upenn.edu/kaplan_map/CityGalleries/web/tc_br14s34_2r_web.jpg","address":"Concord, MA","name":"Strauss': One Price Clothing House","tiff_locat":"tc_br14s34_2r.tif"},"geometry":{"type":"Point","coordinates":[-71.348947,42.460366]}},{"type":"Feature","properties":{"genre":"Trade cards","url":"http://devsceti.library.upenn.edu/kaplan_map/CityGalleries/web/tc_br39s49_3r_web.jpg","address":"Lancaster, PA","name":"A. Hirsh: New York Millinery","tiff_locat":"tc_br39s49_3r.tif"},"geometry":{"type":"Point","coordinates":[-76.305509,40.037876]}},{"type":"Feature","properties":{"genre":"Trade cards","url":"http://devsceti.library.upenn.edu/kaplan_map/CityGalleries/web/tc_br32s20_1r_web.jpg","address":"Cincinnati, OH","name":"Ullmann, Dreifus & Co.: Great Leader Cigars","tiff_locat":"tc_br32s20_1r.tif"},"geometry":{"type":"Point","coordinates":[-84.456887,39.161997]}},{"type":"Feature","properties":{"genre":"Trade cards","url":"http://devsceti.library.upenn.edu/kaplan_map/CityGalleries/web/tc_br13s47_1r_web.jpg","address":"Baltimore, MD","name":"Wiesenfeld & Schloss: Dry Goods and Notions","tiff_locat":"tc_br13s47_1r.tif"},"geometry":{"type":"Point","coordinates":[-76.612188,39.29038]}},{"type":"Feature","properties":{"genre":"Trade cards","url":"http://devsceti.library.upenn.edu/kaplan_map/CityGalleries/web/tc_br18s28_4r_web.jpg","address":"Manhattan, NY","name":"S. Steinfeld & Co.: Jobbers of Fancy Goods, Hosiery, Laces, Embroideries, Etc. (S. Steinfeld, F. Seligman)","tiff_locat":"tc_br18s28_4r.tif"},"geometry":{"type":"Point","coordinates":[-74.00597,40.714269]}},{"type":"Feature","properties":{"genre":"Trade cards","url":"http://devsceti.library.upenn.edu/kaplan_map/CityGalleries/web/tc_br9s63_3r_web.jpg","address":"New Haven, CT","name":"G.H. Ackerman: Clothes Wringers","tiff_locat":"tc_br9s63_3r.tif"},"geometry":{"type":"Point","coordinates":[-72.928158,41.308149]}},{"type":"Feature","properties":{"genre":"Trade cards","url":"http://devsceti.library.upenn.edu/kaplan_map/CityGalleries/web/tc_br32s12_4r_web.jpg","address":"Cincinnati, OH","name":"Hyman & Co.: Furnisture, Carpets, Stoves, Etc.","tiff_locat":"tc_br32s12_4r.tif"},"geometry":{"type":"Point","coordinates":[-84.456887,39.161997]}},{"type":"Feature","properties":{"genre":"Trade cards","url":"http://devsceti.library.upenn.edu/kaplan_map/CityGalleries/web/tc_br31s26_2r_web.jpg","address":"Syracuse, NY","name":"S. Rosenbloom & Sons: Shoe Dealers","tiff_locat":"tc_br31s26_2r.tif"},"geometry":{"type":"Point","coordinates":[-76.14742,43.048118]}},{"type":"Feature","properties":{"genre":"Trade cards","url":"http://devsceti.library.upenn.edu/kaplan_map/CityGalleries/web/tc_br27s4_1r_web.jpg","address":"New York, NY","name":"Friedhoff & Brockman: Wines, Liquors and Segars","tiff_locat":"tc_br27s4_1r.tif"},"geometry":{"type":"Point","coordinates":[-74.00597,40.714269]}},{"type":"Feature","properties":{"genre":"Trade cards","url":"http://devsceti.library.upenn.edu/kaplan_map/CityGalleries/web/tc_br17s17_2r_web.jpg","address":"Jersey City, NJ","name":"Max Stadler & Co.: Clothiers","tiff_locat":"tc_br17s17_2r.tif"},"geometry":{"type":"Point","coordinates":[-74.07764,40.72816]}},{"type":"Feature","properties":{"genre":"Trade cards","url":"http://devsceti.library.upenn.edu/kaplan_map/CityGalleries/web/tc_br8_s24_1r_web.jpg","address":"Kansas City, KS","name":"Cohen & Gately's: Dime Store","tiff_locat":"tc_br8_s24_1r.tif"},"geometry":{"type":"Point","coordinates":[-94.627456,39.114166]}},{"type":"Feature","properties":{"genre":"Trade cards","url":"http://devsceti.library.upenn.edu/kaplan_map/CityGalleries/web/tc_br27s7_3r_web.jpg","address":"New York, NY","name":"R. Goldvogel: Jeweler","tiff_locat":"tc_br27s7_3r.tif"},"geometry":{"type":"Point","coordinates":[-74.00597,40.714269]}},{"type":"Feature","properties":{"genre":"Trade cards","url":"http://devsceti.library.upenn.edu/kaplan_map/CityGalleries/web/tc_br31s23_4r_web.jpg","address":"Syracuse, NY","name":"S. Rosenbloom & Sons: Boot and Shoe Dealers","tiff_locat":"tc_br31s23_4r.tif"},"geometry":{"type":"Point","coordinates":[-76.14742,43.048118]}},{"type":"Feature","properties":{"genre":"Trade cards","url":"http://devsceti.library.upenn.edu/kaplan_map/CityGalleries/web/tc_br26s3_1r_web.jpg","address":"Cohoes, NY","name":"Henry Silberman: One-Price Shoe Dealer","tiff_locat":"tc_br26s3_1r.tif"},"geometry":{"type":"Point","coordinates":[-73.700119,42.774236]}},{"type":"Feature","properties":{"genre":"Trade cards","url":"http://devsceti.library.upenn.edu/kaplan_map/CityGalleries/web/tc_br26s17_4r_web.jpg","address":"Elmira, NY","name":"L. Rosenbaum & Sons: Dry Goods and Suits","tiff_locat":"tc_br26s17_4r.tif"},"geometry":{"type":"Point","coordinates":[-76.807727,42.089797]}},{"type":"Feature","properties":{"genre":"Trade cards","url":"http://devsceti.library.upenn.edu/kaplan_map/CityGalleries/web/tc_br18s31_4r_web.jpg","address":"Manhattan, NY","name":"Morris Solomon & Sons, Inc.: All kinds of used fruit and vegetable packages","tiff_locat":"tc_br18s31_4r.tif"},"geometry":{"type":"Point","coordinates":[-74.00597,40.714269]}},{"type":"Feature","properties":{"genre":"Trade cards","url":"http://devsceti.library.upenn.edu/kaplan_map/CityGalleries/web/tc_br26s11_2r_web.jpg","address":"Cohoes, NY","name":"Henry Silberman: One-Price Boot and Shoe Dealer","tiff_locat":"tc_br26s11_2r.tif"},"geometry":{"type":"Point","coordinates":[-73.700119,42.774236]}},{"type":"Feature","properties":{"genre":"Trade cards","url":"http://devsceti.library.upenn.edu/kaplan_map/CityGalleries/web/tc_br39s45_4r_web.jpg","address":"Lancaster, PA","name":"A. Hirsh: Millinery, Fancy Goods, and Notions","tiff_locat":"tc_br39s45_4r.tif"},"geometry":{"type":"Point","coordinates":[-76.305509,40.037876]}},{"type":"Feature","properties":{"genre":"Trade cards","url":"http://devsceti.library.upenn.edu/kaplan_map/CityGalleries/web/tc_br17s14_3r_web.jpg","address":"Jersey City, NJ","name":"Max Stadler & Co.: Clothiers","tiff_locat":"tc_br17s14_3r.tif"},"geometry":{"type":"Point","coordinates":[-74.07764,40.72816]}},{"type":"Feature","properties":{"genre":"Trade cards","url":"http://devsceti.library.upenn.edu/kaplan_map/CityGalleries/web/tc_br10s7_1r_web.jpg","address":"Chicago, IL","name":"Kramer & Friedman: Model Department Store","tiff_locat":"tc_br10s7_1r.tif"},"geometry":{"type":"Point","coordinates":[-87.650046,41.850027]}},{"type":"Feature","properties":{"genre":"Trade cards","url":"http://devsceti.library.upenn.edu/kaplan_map/CityGalleries/web/tc_br40s11_1r_web.jpg","address":"Pittsburgh, PA","name":"Fleishman Bros.: Trimmings, Millinery, and Fancy Goods","tiff_locat":"tc_br40s11_1r.tif"},"geometry":{"type":"Point","coordinates":[-79.995888,40.440617]}},{"type":"Feature","properties":{"genre":"Trade cards","url":"http://devsceti.library.upenn.edu/kaplan_map/CityGalleries/web/tc_br9s63_2r_web.jpg","address":"New Haven, CT","name":"G.H. Ackerman: Clothes Wringers","tiff_locat":"tc_br9s63_2r.tif"},"geometry":{"type":"Point","coordinates":[-72.928158,41.308149]}},{"type":"Feature","properties":{"genre":"Trade cards","url":"http://devsceti.library.upenn.edu/kaplan_map/CityGalleries/web/tc_br15s22_1r_web.jpg","address":"Minneapolis, MN","name":"L.E. Shoenberg: Boots & Shoes","tiff_locat":"tc_br15s22_1r.tif"},"geometry":{"type":"Point","coordinates":[-93.263838,44.979967]}},{"type":"Feature","properties":{"genre":"Trade cards","url":"http://devsceti.library.upenn.edu/kaplan_map/CityGalleries/web/tc_br19s1_7r_web.jpg","address":"New York, NY","name":"S. Sulzberger: Millinery and Fancy Goods","tiff_locat":"tc_br19s1_7r.tif"},"geometry":{"type":"Point","coordinates":[-74.00597,40.714269]}},{"type":"Feature","properties":{"genre":"Trade cards","url":"http://devsceti.library.upenn.edu/kaplan_map/CityGalleries/web/tc_br23s29_1r_web.jpg","address":"Manhattan, NY","name":"H. Wolf: Novelty Clothing House of New York","tiff_locat":"tc_br23s29_1r.tif"},"geometry":{"type":"Point","coordinates":[-74.00597,40.714269]}},{"type":"Feature","properties":{"genre":"Trade cards","url":"http://devsceti.library.upenn.edu/kaplan_map/CityGalleries/web/tc_br14s11_3r_web.jpg","address":"Boston, MA","name":"Joseph A. Hart: Fine Confectionery","tiff_locat":"tc_br14s11_3r.tif"},"geometry":{"type":"Point","coordinates":[-71.059766,42.358428]}},{"type":"Feature","properties":{"genre":"Trade cards","url":"http://devsceti.library.upenn.edu/kaplan_map/CityGalleries/web/tc_br17s19_4r_web.jpg","address":"Lambertville, NJ","name":"S. Goldman: Philadelphia Clothing House","tiff_locat":"tc_br17s19_4r.tif"},"geometry":{"type":"Point","coordinates":[-74.94294,40.365937]}},{"type":"Feature","properties":{"genre":"Trade cards","url":"http://devsceti.library.upenn.edu/kaplan_map/CityGalleries/web/tc_br12_s6_2r_web.jpg","address":"Bangor, ME","name":"Samuel B. Stone & Co.: Dry and Fancy Goods","tiff_locat":"tc_br12_s6_2r.tif"},"geometry":{"type":"Point","coordinates":[-68.777807,44.801176]}},{"type":"Feature","properties":{"genre":"Trade cards","url":"http://devsceti.library.upenn.edu/kaplan_map/CityGalleries/web/tc_br19s12_8r_web.jpg","address":"New York, NY","name":"Louis Bock: Baker & Confectioner","tiff_locat":"tc_br19s12_8r.tif"},"geometry":{"type":"Point","coordinates":[-74.00597,40.714269]}},{"type":"Feature","properties":{"genre":"Trade cards","url":"http://devsceti.library.upenn.edu/kaplan_map/CityGalleries/web/tc_br2s2_4r_web.jpg","address":"New Haven, CT","name":"E.M. Gans: Hats, Caps and Furs","tiff_locat":"tc_br2s2_4r.tif"},"geometry":{"type":"Point","coordinates":[-72.928158,41.308149]}},{"type":"Feature","properties":{"genre":"Trade cards","url":"http://devsceti.library.upenn.edu/kaplan_map/CityGalleries/web/tc_br15s17_3r_web.jpg","address":"Minneapolis, MN","name":"Loewenstine & Co.: One Price Clothing House","tiff_locat":"tc_br15s17_3r.tif"},"geometry":{"type":"Point","coordinates":[-93.263838,44.979967]}},{"type":"Feature","properties":{"genre":"Trade cards","url":"http://devsceti.library.upenn.edu/kaplan_map/CityGalleries/web/tc_br18s23_3r_web.jpg","address":"Manhattan, NY","name":"Lissa, Stern & Co.: Trunks, Traveling Bags, and Ladies' Satchels (Henry Lissa, Henry Stern, Harry Schlesinger)","tiff_locat":"tc_br18s23_3r.tif"},"geometry":{"type":"Point","coordinates":[-74.00597,40.714269]}},{"type":"Feature","properties":{"genre":"Trade cards","url":"http://devsceti.library.upenn.edu/kaplan_map/CityGalleries/web/tc_br10s25_7r_web.jpg","address":"Chicago, IL","name":"Selz, Schwab & Co.: Selz \"Rock Bottom\" Shoes","tiff_locat":"tc_br10s25_7r.tif"},"geometry":{"type":"Point","coordinates":[-87.650046,41.850027]}},{"type":"Feature","properties":{"genre":"Trade cards","url":"http://devsceti.library.upenn.edu/kaplan_map/CityGalleries/web/tc_br17s13_1r_web.jpg","address":"Jersey City, NJ","name":"Max Stadler & Co.: Clothiers","tiff_locat":"tc_br17s13_1r.tif"},"geometry":{"type":"Point","coordinates":[-74.07764,40.72816]}},{"type":"Feature","properties":{"genre":"Trade cards","url":"http://devsceti.library.upenn.edu/kaplan_map/CityGalleries/web/tc_br14s52_3r_web.jpg","address":"Boston, MA","name":"S. Arenovsky: Clothing Store","tiff_locat":"tc_br14s52_3r.tif"},"geometry":{"type":"Point","coordinates":[-71.059766,42.358428]}},{"type":"Feature","properties":{"genre":"Trade cards","url":"http://devsceti.library.upenn.edu/kaplan_map/CityGalleries/web/tc_br25s2_2r_web.jpg","address":"Ballston Spa, NY","name":"Frank & Levy: Dealers in Clothing","tiff_locat":"tc_br25s2_2r.tif"},"geometry":{"type":"Point","coordinates":[-73.849006,43.000908]}},{"type":"Feature","properties":{"genre":"Trade cards","url":"http://devsceti.library.upenn.edu/kaplan_map/CityGalleries/web/tc_br26s10_1r_web.jpg","address":"Cohoes, NY","name":"Herman Kahn","tiff_locat":"tc_br26s10_1r.tif"},"geometry":{"type":"Point","coordinates":[-73.700119,42.774236]}},{"type":"Feature","properties":{"genre":"Trade cards","url":"http://devsceti.library.upenn.edu/kaplan_map/CityGalleries/web/tc_br15s20_1r_web.jpg","address":"Minneapolis, MN","name":"Schliek & Co.: Fine Shoes","tiff_locat":"tc_br15s20_1r.tif"},"geometry":{"type":"Point","coordinates":[-93.263838,44.979967]}},{"type":"Feature","properties":{"genre":"Trade cards","url":"http://devsceti.library.upenn.edu/kaplan_map/CityGalleries/web/tc_br17s21_1r_web.jpg","address":"New Brunswick, NJ","name":"Blum's: Fashionable Millinery","tiff_locat":"tc_br17s21_1r.tif"},"geometry":{"type":"Point","coordinates":[-74.451817,40.486216]}},{"type":"Feature","properties":{"genre":"Trade cards","url":"http://devsceti.library.upenn.edu/kaplan_map/CityGalleries/web/tc_br31s29_1r_web.jpg","address":"Syracuse, NY","name":"S. Rosenbloom & Sons: Boot and Shoe Dealers","tiff_locat":"tc_br31s29_1r.tif"},"geometry":{"type":"Point","coordinates":[-76.14742,43.048118]}},{"type":"Feature","properties":{"genre":"Trade cards","url":"http://devsceti.library.upenn.edu/kaplan_map/CityGalleries/web/tc_br2s39_4r_web.jpg","address":"Philadelphia, PA","name":"Henry Phillips, Jr.: United States Commissioner","tiff_locat":"tc_br2s39_4r.tif"},"geometry":{"type":"Point","coordinates":[-75.163789,39.952339]}},{"type":"Feature","properties":{"genre":"Trade cards","url":"http://devsceti.library.upenn.edu/kaplan_map/CityGalleries/web/tc_br17s16_4r_web.jpg","address":"Jersey City, NJ","name":"Max Stadler & Co.: Clothiers","tiff_locat":"tc_br17s16_4r.tif"},"geometry":{"type":"Point","coordinates":[-74.07764,40.72816]}},{"type":"Feature","properties":{"genre":"Trade cards","url":"http://devsceti.library.upenn.edu/kaplan_map/CityGalleries/web/tc_br20s2_1r_web.jpg","address":"Johnstown, NY","name":"Schoenfeldt & Heagle: Dry & Fancy Goods","tiff_locat":"tc_br20s2_1r.tif"},"geometry":{"type":"Point","coordinates":[-74.367639,43.006739]}},{"type":"Feature","properties":{"genre":"Trade cards","url":"http://devsceti.library.upenn.edu/kaplan_map/CityGalleries/web/tc_br27s32_1r_web.jpg","address":"New York, NY","name":"Kaufmann & Strauss: Art Publishers","tiff_locat":"tc_br27s32_1r.tif"},"geometry":{"type":"Point","coordinates":[-74.00597,40.714269]}},{"type":"Feature","properties":{"genre":"Trade cards","url":"http://devsceti.library.upenn.edu/kaplan_map/CityGalleries/web/tc_br21s9_3r_web.jpg","address":"New York, NY","name":"Herman Loeb: Armant's Perfumes","tiff_locat":"tc_br21s9_3r.tif"},"geometry":{"type":"Point","coordinates":[-74.00597,40.714269]}},{"type":"Feature","properties":{"genre":"Trade cards","url":"http://devsceti.library.upenn.edu/kaplan_map/CityGalleries/web/tc_br26s15_1r_web.jpg","address":"Elmira, NY","name":"Cassal: Watchmaker & Jeweler","tiff_locat":"tc_br26s15_1r.tif"},"geometry":{"type":"Point","coordinates":[-76.807727,42.089797]}},{"type":"Feature","properties":{"genre":"Trade cards","url":"http://devsceti.library.upenn.edu/kaplan_map/CityGalleries/web/tc_br26s13_2r_web.jpg","address":"Cohoes, NY","name":"Henry Silberman: One-Price Shoe Dealer","tiff_locat":"tc_br26s13_2r.tif"},"geometry":{"type":"Point","coordinates":[-73.700119,42.774236]}},{"type":"Feature","properties":{"genre":"Trade cards","url":"http://devsceti.library.upenn.edu/kaplan_map/CityGalleries/web/tc_br3s2_3r_web.jpg","address":"Chicago, IL","name":"A. & L.S. Pierce: Real Estate Office","tiff_locat":"tc_br3s2_3r.tif"},"geometry":{"type":"Point","coordinates":[-87.650046,41.850027]}},{"type":"Feature","properties":{"genre":"Trade cards","url":"http://devsceti.library.upenn.edu/kaplan_map/CityGalleries/web/tc_br32s10_1r_web.jpg","address":"Cincinnati, OH","name":"Feld & Fine: Dealers in Furniture","tiff_locat":"tc_br32s10_1r.tif"},"geometry":{"type":"Point","coordinates":[-84.456887,39.161997]}},{"type":"Feature","properties":{"genre":"Trade cards","url":"http://devsceti.library.upenn.edu/kaplan_map/CityGalleries/web/tc_br17s17_3r_web.jpg","address":"Jersey City, NJ","name":"Max Stadler & Co.: Clothiers","tiff_locat":"tc_br17s17_3r.tif"},"geometry":{"type":"Point","coordinates":[-74.07764,40.72816]}},{"type":"Feature","properties":{"genre":"Trade cards","url":"http://devsceti.library.upenn.edu/kaplan_map/CityGalleries/web/tc_br17s15_2r_web.jpg","address":"Jersey City, NJ","name":"Max Stadler & Co.: Clothiers","tiff_locat":"tc_br17s15_2r.tif"},"geometry":{"type":"Point","coordinates":[-74.07764,40.72816]}},{"type":"Feature","properties":{"genre":"Trade cards","url":"http://devsceti.library.upenn.edu/kaplan_map/CityGalleries/web/tc_br10s28_2r_web.jpg","address":"Chicago, IL","name":"Sunfield's: Grocery Store","tiff_locat":"tc_br10s28_2r.tif"},"geometry":{"type":"Point","coordinates":[-87.650046,41.850027]}},{"type":"Feature","properties":{"genre":"Trade cards","url":"http://devsceti.library.upenn.edu/kaplan_map/CityGalleries/web/tc_br14s22_2r_web.jpg","address":"Boston, MA","name":"A. Shuman & Co.: Clothiers","tiff_locat":"tc_br14s22_2r.tif"},"geometry":{"type":"Point","coordinates":[-71.059766,42.358428]}},{"type":"Feature","properties":{"genre":"Trade cards","url":"http://devsceti.library.upenn.edu/kaplan_map/CityGalleries/web/tc_br15s19_3r_web.jpg","address":"Minneapolis, MN","name":"Rothschild's: One Price Clothing House","tiff_locat":"tc_br15s19_3r.tif"},"geometry":{"type":"Point","coordinates":[-93.263838,44.979967]}},{"type":"Feature","properties":{"genre":"Trade cards","url":"http://devsceti.library.upenn.edu/kaplan_map/CityGalleries/web/tc_br17s6_1r_web.jpg","address":"New Brunswick, NJ","name":"M. Bierman's Son: One Price Boot and Shoe Dealer","tiff_locat":"tc_br17s6_1r.tif"},"geometry":{"type":"Point","coordinates":[-74.451817,40.486216]}},{"type":"Feature","properties":{"genre":"Trade cards","url":"http://devsceti.library.upenn.edu/kaplan_map/CityGalleries/web/tc_br22s22_1r_web.jpg","address":"Manhattan, NY","name":"Ph. Simon: Fashionable Boot and Shoe Maker","tiff_locat":"tc_br22s22_1r.tif"},"geometry":{"type":"Point","coordinates":[-74.00597,40.714269]}},{"type":"Feature","properties":{"genre":"Trade cards","url":"http://devsceti.library.upenn.edu/kaplan_map/CityGalleries/web/tc_br23s17_3r_web.jpg","address":"Manhattan, NY","name":"S. Sulzberger: Dry Goods, Millinery and Fancy Goods","tiff_locat":"tc_br23s17_3r.tif"},"geometry":{"type":"Point","coordinates":[-74.00597,40.714269]}},{"type":"Feature","properties":{"genre":"Trade cards","url":"http://devsceti.library.upenn.edu/kaplan_map/CityGalleries/web/tc_br39s20_1r_web.jpg","address":"Bradford, PA","name":"H. Sondheim: Corsets","tiff_locat":"tc_br39s20_1r.tif"},"geometry":{"type":"Point","coordinates":[-78.64392,41.955898]}},{"type":"Feature","properties":{"genre":"Trade cards","url":"http://devsceti.library.upenn.edu/kaplan_map/CityGalleries/web/tc_br39s41_1r_web.jpg","address":"Johnstown, PA","name":"Marx & Cohen: Clothiers, Hatters and Furnishers","tiff_locat":"tc_br39s41_1r.tif"},"geometry":{"type":"Point","coordinates":[-78.921968,40.326737]}},{"type":"Feature","properties":{"genre":"Trade cards","url":"http://devsceti.library.upenn.edu/kaplan_map/CityGalleries/web/tc_br40s23_1r_web.jpg","address":"Pittsburgh, PA","name":"J. Sperber: Artist and Photographer","tiff_locat":"tc_br40s23_1r.tif"},"geometry":{"type":"Point","coordinates":[-79.995888,40.440617]}},{"type":"Feature","properties":{"genre":"Trade cards","url":"http://devsceti.library.upenn.edu/kaplan_map/CityGalleries/web/tc_br19s12_4r_web.jpg","address":"New York, NY","name":"S. Bloomfield: Fine Shoes","tiff_locat":"tc_br19s12_4r.tif"},"geometry":{"type":"Point","coordinates":[-74.00597,40.714269]}},{"type":"Feature","properties":{"genre":"Trade cards","url":"http://devsceti.library.upenn.edu/kaplan_map/CityGalleries/web/tc_br14s41_1r_web.jpg","address":"Boston, MA","name":"Geo. H. Samuel: Furniture and Carpet Company","tiff_locat":"tc_br14s41_1r.tif"},"geometry":{"type":"Point","coordinates":[-71.059766,42.358428]}},{"type":"Feature","properties":{"genre":"Trade cards","url":"http://devsceti.library.upenn.edu/kaplan_map/CityGalleries/web/tc_br17s9_3r_web.jpg","address":"New Brunswick, NJ","name":"Meyer Bros.: Dry and Fancy Goods.","tiff_locat":"tc_br17s9_3r.tif"},"geometry":{"type":"Point","coordinates":[-74.451817,40.486216]}},{"type":"Feature","properties":{"genre":"Trade cards","url":"http://devsceti.library.upenn.edu/kaplan_map/CityGalleries/web/tc_br10s27_1r_web.jpg","address":"Chicago, IL","name":"Spiegel & Co.: Furniture","tiff_locat":"tc_br10s27_1r.tif"},"geometry":{"type":"Point","coordinates":[-87.650046,41.850027]}},{"type":"Feature","properties":{"genre":"Trade cards","url":"http://devsceti.library.upenn.edu/kaplan_map/CityGalleries/web/tc_br33s29_1r_web.jpg","address":"Philadelphia, PA","name":"Friedberger & Strouse","tiff_locat":"tc_br33s29_1r.tif"},"geometry":{"type":"Point","coordinates":[-75.163789,39.952339]}},{"type":"Feature","properties":{"genre":"Trade cards","url":"http://devsceti.library.upenn.edu/kaplan_map/CityGalleries/web/tc_br17s12_1r_web.jpg","address":"Jersey City, NJ","name":"Max Stadler & Co.: Clothiers","tiff_locat":"tc_br17s12_1r.tif"},"geometry":{"type":"Point","coordinates":[-74.07764,40.72816]}},{"type":"Feature","properties":{"genre":"Trade cards","url":"http://devsceti.library.upenn.edu/kaplan_map/CityGalleries/web/tc_br25s24_3r_web.jpg","address":"Buffalo, NY","name":"Joseph Gross: Jeweler","tiff_locat":"tc_br25s24_3r.tif"},"geometry":{"type":"Point","coordinates":[-78.878367,42.886447]}},{"type":"Feature","properties":{"genre":"Trade cards","url":"http://devsceti.library.upenn.edu/kaplan_map/CityGalleries/web/tc_br39s1_2r_web.jpg","address":"Allegheny, PA","name":"Chas. Reizenstein: China, Glass, & c.","tiff_locat":"tc_br39s1_2r.tif"},"geometry":{"type":"Point","coordinates":[-80.016159,40.45062]}},{"type":"Feature","properties":{"genre":"Trade cards","url":"http://devsceti.library.upenn.edu/kaplan_map/CityGalleries/web/tc_br18s24_1r_web.jpg","address":"Manhattan, NY","name":"M. Neuburger & Co.: Importers of Small Wares, Fancy Goods & Notions (J. Rosenberg, S. Wilhelm)","tiff_locat":"tc_br18s24_1r.tif"},"geometry":{"type":"Point","coordinates":[-74.00597,40.714269]}},{"type":"Feature","properties":{"genre":"Trade cards","url":"http://devsceti.library.upenn.edu/kaplan_map/CityGalleries/web/tc_br9s60_1r_web.jpg","address":"New Haven, CT","name":"L.L. Adler: Fancy Goods and Novelties","tiff_locat":"tc_br9s60_1r.tif"},"geometry":{"type":"Point","coordinates":[-72.928158,41.308149]}},{"type":"Feature","properties":{"genre":"Trade cards","url":"http://devsceti.library.upenn.edu/kaplan_map/CityGalleries/web/tc_br2s6_2r_web.jpg","address":"Minneapolis, MN","name":"R. Nurick: Second-hand Boots & Shoes","tiff_locat":"tc_br2s6_2r.tif"},"geometry":{"type":"Point","coordinates":[-93.263838,44.979967]}},{"type":"Feature","properties":{"genre":"Trade cards","url":"http://devsceti.library.upenn.edu/kaplan_map/CityGalleries/web/tc_br31s29_3r_web.jpg","address":"Syracuse, NY","name":"S. Rosenbloom & Sons: Boots and Shoes","tiff_locat":"tc_br31s29_3r.tif"},"geometry":{"type":"Point","coordinates":[-76.14742,43.048118]}},{"type":"Feature","properties":{"genre":"Trade cards","url":"http://devsceti.library.upenn.edu/kaplan_map/CityGalleries/web/tc_br2s35_3r_web.jpg","address":"Philadelphia, PA","name":"I. Bedichimer's: Watches, Jewelery, and Silver Ware","tiff_locat":"tc_br2s35_3r.tif"},"geometry":{"type":"Point","coordinates":[-75.163789,39.952339]}},{"type":"Feature","properties":{"genre":"Trade cards","url":"http://devsceti.library.upenn.edu/kaplan_map/CityGalleries/web/tc_br18s11_1r_web.jpg","address":"Manhattan, NY","name":"J. Lochman: The Hatter","tiff_locat":"tc_br18s11_1r.tif"},"geometry":{"type":"Point","coordinates":[-74.00597,40.714269]}},{"type":"Feature","properties":{"genre":"Trade cards","url":"http://devsceti.library.upenn.edu/kaplan_map/CityGalleries/web/tc_br39s41_2r_web.jpg","address":"Johnstown, PA","name":"A. Cohen: Bon Ton Clothing Store","tiff_locat":"tc_br39s41_2r.tif"},"geometry":{"type":"Point","coordinates":[-78.921968,40.326737]}},{"type":"Feature","properties":{"genre":"Trade cards","url":"http://devsceti.library.upenn.edu/kaplan_map/CityGalleries/web/tc_br27s17_3r_web.jpg","address":"New York, NY","name":"Hartshorn's: Self Acting Shade Rollers","tiff_locat":"tc_br27s17_3r.tif"},"geometry":{"type":"Point","coordinates":[-74.00597,40.714269]}},{"type":"Feature","properties":{"genre":"Trade cards","url":"http://devsceti.library.upenn.edu/kaplan_map/CityGalleries/web/tc_br19s8_3r_web.jpg","address":"New York, NY","name":"J. Blankenstein: Tobacconist","tiff_locat":"tc_br19s8_3r.tif"},"geometry":{"type":"Point","coordinates":[-74.00597,40.714269]}},{"type":"Feature","properties":{"genre":"Trade cards","url":"http://devsceti.library.upenn.edu/kaplan_map/CityGalleries/web/tc_br10s33_1r_web.jpg","address":"Peoria, IL","name":"Schipper and Block: Dry Goods, Cloaks, Furs, Carpets, and Draperies","tiff_locat":"tc_br10s33_1r.tif"},"geometry":{"type":"Point","coordinates":[-89.588987,40.693648]}},{"type":"Feature","properties":{"genre":"Trade cards","url":"http://devsceti.library.upenn.edu/kaplan_map/CityGalleries/web/tc_br26s23_2r_web.jpg","address":"Glen Falls, NY","name":"Cohen Brothers: Clothiers and Hatters","tiff_locat":"tc_br26s23_2r.tif"},"geometry":{"type":"Point","coordinates":[-73.644009,43.309518]}},{"type":"Feature","properties":{"genre":"Trade cards","url":"http://devsceti.library.upenn.edu/kaplan_map/CityGalleries/web/tc_br23s29_3r_web.jpg","address":"Manhattan, NY","name":"Louis Aldrich and Chas. T. Parsloe: My Partner, a play by Bartley Campbell","tiff_locat":"tc_br23s29_3r.tif"},"geometry":{"type":"Point","coordinates":[-74.00597,40.714269]}},{"type":"Feature","properties":{"genre":"Trade cards","url":"http://devsceti.library.upenn.edu/kaplan_map/CityGalleries/web/tc_br2s29_4r_web.jpg","address":"Cincinnati, OH","name":"Ullmann, Dreifus & Co.: Great Leader Cigars","tiff_locat":"tc_br2s29_4r.tif"},"geometry":{"type":"Point","coordinates":[-84.456887,39.161997]}},{"type":"Feature","properties":{"genre":"Trade cards","url":"http://devsceti.library.upenn.edu/kaplan_map/CityGalleries/web/tc_br8_s5_2r_web.jpg","address":"Kimball, DT","name":"W.H. Mierstien: Rubber Boots and Shoes","tiff_locat":"tc_br8_s5_2r.tif"},"geometry":{"type":"Point","coordinates":[-98.958429,43.746667]}},{"type":"Feature","properties":{"genre":"Trade cards","url":"http://devsceti.library.upenn.edu/kaplan_map/CityGalleries/web/tc_br39s42_2r_web.jpg","address":"Lancaster, PA","name":"Astrich Brothers': Lancaster Bazaar","tiff_locat":"tc_br39s42_2r.tif"},"geometry":{"type":"Point","coordinates":[-76.305509,40.037876]}},{"type":"Feature","properties":{"genre":"Trade cards","url":"http://devsceti.library.upenn.edu/kaplan_map/CityGalleries/web/tc_br13s32_3r_web.jpg","address":"Baltimore, MD","name":"Laupheimer Bros.: Baby Carriages, Refrigerators, Furniture, & c.","tiff_locat":"tc_br13s32_3r.tif"},"geometry":{"type":"Point","coordinates":[-76.612188,39.29038]}},{"type":"Feature","properties":{"genre":"Trade cards","url":"http://devsceti.library.upenn.edu/kaplan_map/CityGalleries/web/tc_br12_s2_3r_web.jpg","address":"Bath, ME","name":"S.J. Goldstein: Clothier","tiff_locat":"tc_br12_s2_3r.tif"},"geometry":{"type":"Point","coordinates":[-69.820599,43.910637]}},{"type":"Feature","properties":{"genre":"Trade cards","url":"http://devsceti.library.upenn.edu/kaplan_map/CityGalleries/web/tc_br9s67_3r_web.jpg","address":"New Haven, CT","name":"Judd's Lunch Room","tiff_locat":"tc_br9s67_3r.tif"},"geometry":{"type":"Point","coordinates":[-72.928158,41.308149]}},{"type":"Feature","properties":{"genre":"Trade cards","url":"http://devsceti.library.upenn.edu/kaplan_map/CityGalleries/web/tc_br15s16_2r_web.jpg","address":"Minneapolis, MN","name":"Altman & Co.: Clothiers","tiff_locat":"tc_br15s16_2r.tif"},"geometry":{"type":"Point","coordinates":[-93.263838,44.979967]}},{"type":"Feature","properties":{"genre":"Trade cards","url":"http://devsceti.library.upenn.edu/kaplan_map/CityGalleries/web/tc_br18s3_5r_web.jpg","address":"Manhattan, NY","name":"Gans Brothers: Staple and Fancy Dry Goods (Ralph Gans, Robert Gans)","tiff_locat":"tc_br18s3_5r.tif"},"geometry":{"type":"Point","coordinates":[-74.00597,40.714269]}},{"type":"Feature","properties":{"genre":"Trade cards","url":"http://devsceti.library.upenn.edu/kaplan_map/CityGalleries/web/tc_br23s8_2r_web.jpg","address":"Manhattan, NY","name":"Jos. Stiner & Co.: Importers, Teas, and Coffees","tiff_locat":"tc_br23s8_2r.tif"},"geometry":{"type":"Point","coordinates":[-74.00597,40.714269]}},{"type":"Feature","properties":{"genre":"Trade cards","url":"http://devsceti.library.upenn.edu/kaplan_map/CityGalleries/web/tc_br25s15_1r_web.jpg","address":"Brooklyn, NY","name":"Schwartz's: Toy Bazaar","tiff_locat":"tc_br25s15_1r.tif"},"geometry":{"type":"Point","coordinates":[-73.949576,40.650096]}},{"type":"Feature","properties":{"genre":"Trade cards","url":"http://devsceti.library.upenn.edu/kaplan_map/CityGalleries/web/tc_br39s49_4r_web.jpg","address":"Lancaster, PA","name":"A. Hirsh: New York Millinery","tiff_locat":"tc_br39s49_4r.tif"},"geometry":{"type":"Point","coordinates":[-76.305509,40.037876]}},{"type":"Feature","properties":{"genre":"Trade cards","url":"http://devsceti.library.upenn.edu/kaplan_map/CityGalleries/web/tc_br2s10_4r_web.jpg","address":"Baltimore, MD","name":"Hirschberg, Hollander & Co.: Reno's French Umber Filler","tiff_locat":"tc_br2s10_4r.tif"},"geometry":{"type":"Point","coordinates":[-76.612188,39.29038]}},{"type":"Feature","properties":{"genre":"Trade cards","url":"http://devsceti.library.upenn.edu/kaplan_map/CityGalleries/web/tc_br27s10_1r_web.jpg","address":"New York, NY","name":"Louis Geist: Hatter","tiff_locat":"tc_br27s10_1r.tif"},"geometry":{"type":"Point","coordinates":[-74.00597,40.714269]}},{"type":"Feature","properties":{"genre":"Trade cards","url":"http://devsceti.library.upenn.edu/kaplan_map/CityGalleries/web/tc_br26s18_1r_web.jpg","address":"Elmira, NY","name":"L. Rosenbaum & Sons: Fine Millinery","tiff_locat":"tc_br26s18_1r.tif"},"geometry":{"type":"Point","coordinates":[-76.807727,42.089797]}},{"type":"Feature","properties":{"genre":"Trade cards","url":"http://devsceti.library.upenn.edu/kaplan_map/CityGalleries/web/tc_br15s17_2r_web.jpg","address":"Minneapolis, MN","name":"J. Kantrowitz & Co.: Bay State Clothing House","tiff_locat":"tc_br15s17_2r.tif"},"geometry":{"type":"Point","coordinates":[-93.263838,44.979967]}},{"type":"Feature","properties":{"genre":"Trade cards","url":"http://devsceti.library.upenn.edu/kaplan_map/CityGalleries/web/tc_br18s4_6r_web.jpg","address":"Manhattan, NY","name":"Rugoff & Co.","tiff_locat":"tc_br18s4_6r.tif"},"geometry":{"type":"Point","coordinates":[-74.00597,40.714269]}},{"type":"Feature","properties":{"genre":"Trade cards","url":"http://devsceti.library.upenn.edu/kaplan_map/CityGalleries/web/tc_br3s5_3r_web.jpg","address":"Chicago, IL","name":"J.B. Clarke: Novelty Card & Adv'g Co.","tiff_locat":"tc_br3s5_3r.tif"},"geometry":{"type":"Point","coordinates":[-87.650046,41.850027]}},{"type":"Feature","properties":{"genre":"Trade cards","url":"http://devsceti.library.upenn.edu/kaplan_map/CityGalleries/web/tc_br22s4_2r_web.jpg","address":"Manhattan, NY","name":"Rosenberg's: Merchant for Elastica Trademark Finishes (finishes for buildings, boats, and doors)","tiff_locat":"tc_br22s4_2r.tif"},"geometry":{"type":"Point","coordinates":[-74.00597,40.714269]}},{"type":"Feature","properties":{"genre":"Trade cards","url":"http://devsceti.library.upenn.edu/kaplan_map/CityGalleries/web/tc_br25s16_4r_web.jpg","address":"Buffalo, NY","name":"Altman & Co.: Clothiers, Hatters and Furnishers","tiff_locat":"tc_br25s16_4r.tif"},"geometry":{"type":"Point","coordinates":[-78.878367,42.886447]}},{"type":"Feature","properties":{"genre":"Trade cards","url":"http://devsceti.library.upenn.edu/kaplan_map/CityGalleries/web/tc_br19s9_3r_web.jpg","address":"New York, NY","name":"Jacobs & Bernstein's: Shoe Emporium","tiff_locat":"tc_br19s9_3r.tif"},"geometry":{"type":"Point","coordinates":[-74.00597,40.714269]}},{"type":"Feature","properties":{"genre":"Trade cards","url":"http://devsceti.library.upenn.edu/kaplan_map/CityGalleries/web/tc_br37s6_2r_web.jpg","address":"Philadelphia, PA","name":"Anton Rubinstein: Royal Conservatory, St. Petersburg","tiff_locat":"tc_br37s6_2r.tif"},"geometry":{"type":"Point","coordinates":[-75.163789,39.952339]}},{"type":"Feature","properties":{"genre":"Trade cards","url":"http://devsceti.library.upenn.edu/kaplan_map/CityGalleries/web/tc_br15s21_2r_web.jpg","address":"Minneapolis, MN","name":"Segelbaum Bros.: Dry Goods, Fancy Goods, Notions and Millinery","tiff_locat":"tc_br15s21_2r.tif"},"geometry":{"type":"Point","coordinates":[-93.263838,44.979967]}},{"type":"Feature","properties":{"genre":"Trade cards","url":"http://devsceti.library.upenn.edu/kaplan_map/CityGalleries/web/tc_br5s10_1r_web.jpg","address":"Nevada City, CA","name":"Hyman Brothers: Clothing, Hats, Boots, Shoes, Etc.","tiff_locat":"tc_br5s10_1r.tif"},"geometry":{"type":"Point","coordinates":[-121.016057,39.26156]}},{"type":"Feature","properties":{"genre":"Trade cards","url":"http://devsceti.library.upenn.edu/kaplan_map/CityGalleries/web/tc_br5s6_2r_web.jpg","address":"Los Gatos, CA","name":"J. Wimmer: Merchant Tailor","tiff_locat":"tc_br5s6_2r.tif"},"geometry":{"type":"Point","coordinates":[-121.974679,37.226606]}},{"type":"Feature","properties":{"genre":"Trade cards","url":"http://devsceti.library.upenn.edu/kaplan_map/CityGalleries/web/tc_br33s11_1r_web.jpg","address":"Philadelphia, PA","name":"David Cohen: Shoe House","tiff_locat":"tc_br33s11_1r.tif"},"geometry":{"type":"Point","coordinates":[-75.163789,39.952339]}},{"type":"Feature","properties":{"genre":"Trade cards","url":"http://devsceti.library.upenn.edu/kaplan_map/CityGalleries/web/tc_br13s52_2r_web.jpg","address":"Charlestown, SC","name":"Jager Bros: Kid Glove","tiff_locat":"tc_br13s52_2r.tif"},"geometry":{"type":"Point","coordinates":[-79.930918,32.776569]}},{"type":"Feature","properties":{"genre":"Trade cards","url":"http://devsceti.library.upenn.edu/kaplan_map/CityGalleries/web/tc_br39s43_9r_web.jpg","address":"Lancaster, PA","name":"Astrich Brothers': Lancaster Bazaar","tiff_locat":"tc_br39s43_9r.tif"},"geometry":{"type":"Point","coordinates":[-76.305509,40.037876]}},{"type":"Feature","properties":{"genre":"Trade cards","url":"http://devsceti.library.upenn.edu/kaplan_map/CityGalleries/web/tc_br19s9_2r_web.jpg","address":"New York, NY","name":"Jacobs & Bernstein's: Fine Shoes","tiff_locat":"tc_br19s9_2r.tif"},"geometry":{"type":"Point","coordinates":[-74.00597,40.714269]}},{"type":"Feature","properties":{"genre":"Trade cards","url":"http://devsceti.library.upenn.edu/kaplan_map/CityGalleries/web/tc_br19s23_1r_web.jpg","address":"New York, NY","name":"Samuel Cohn & Bro.: Fine Shoes","tiff_locat":"tc_br19s23_1r.tif"},"geometry":{"type":"Point","coordinates":[-74.00597,40.714269]}},{"type":"Feature","properties":{"genre":"Trade cards","url":"http://devsceti.library.upenn.edu/kaplan_map/CityGalleries/web/tc_br20s13_4r_web.jpg","address":"Freeport, IL","name":"I. Cohen: Clothing","tiff_locat":"tc_br20s13_4r.tif"},"geometry":{"type":"Point","coordinates":[-89.621227,42.296689]}},{"type":"Feature","properties":{"genre":"Trade cards","url":"http://devsceti.library.upenn.edu/kaplan_map/CityGalleries/web/tc_br32s15_2r_web.jpg","address":"Cincinnati, OH","name":"Loewenstein Canning Company: Compressed Corned Beef","tiff_locat":"tc_br32s15_2r.tif"},"geometry":{"type":"Point","coordinates":[-84.456887,39.161997]}},{"type":"Feature","properties":{"genre":"Trade cards","url":"http://devsceti.library.upenn.edu/kaplan_map/CityGalleries/web/tc_br23s10_3r_web.jpg","address":"Manhattan, NY","name":"Straus: New York Bazaar, Mittens, Leggins and Nubia Hoods","tiff_locat":"tc_br23s10_3r.tif"},"geometry":{"type":"Point","coordinates":[-74.00597,40.714269]}},{"type":"Feature","properties":{"genre":"Trade cards","url":"http://devsceti.library.upenn.edu/kaplan_map/CityGalleries/web/tc_br10s13_1r_web.jpg","address":"Chicago, IL","name":"Loftis Bros & Co.: Diamond Cutters and Watchmakers","tiff_locat":"tc_br10s13_1r.tif"},"geometry":{"type":"Point","coordinates":[-87.650046,41.850027]}},{"type":"Feature","properties":{"genre":"Trade cards","url":"http://devsceti.library.upenn.edu/kaplan_map/CityGalleries/web/tc_br39s42_5r_web.jpg","address":"Lancaster, PA","name":"Astrich Brothers': Lancaster Bazaar","tiff_locat":"tc_br39s42_5r.tif"},"geometry":{"type":"Point","coordinates":[-76.305509,40.037876]}},{"type":"Feature","properties":{"genre":"Trade cards","url":"http://devsceti.library.upenn.edu/kaplan_map/CityGalleries/web/tc_br17s11_3r_web.jpg","address":"Jersey City, NJ","name":"Perlmutter: The Hatter","tiff_locat":"tc_br17s11_3r.tif"},"geometry":{"type":"Point","coordinates":[-74.07764,40.72816]}},{"type":"Feature","properties":{"genre":"Trade cards","url":"http://devsceti.library.upenn.edu/kaplan_map/CityGalleries/web/tc_br24s18_2r_web.jpg","address":"Auburn, NY","name":"S. Rosenbloom & Sons: Leading Boot and Shoe House","tiff_locat":"tc_br24s18_2r.tif"},"geometry":{"type":"Point","coordinates":[-76.566049,42.931727]}},{"type":"Feature","properties":{"genre":"Trade cards","url":"http://devsceti.library.upenn.edu/kaplan_map/CityGalleries/web/tc_br13s42_2r_web.jpg","address":"Baltimore, MD","name":"Joseph Scherer: Furnishing Goods","tiff_locat":"tc_br13s42_2r.tif"},"geometry":{"type":"Point","coordinates":[-76.612188,39.29038]}},{"type":"Feature","properties":{"genre":"Trade cards","url":"http://devsceti.library.upenn.edu/kaplan_map/CityGalleries/web/tc_br14s28_4r_web.jpg","address":"Boston, MA","name":"A. Shuman & Co.: Retail Clothiers","tiff_locat":"tc_br14s28_4r.tif"},"geometry":{"type":"Point","coordinates":[-71.059766,42.358428]}},{"type":"Feature","properties":{"genre":"Trade cards","url":"http://devsceti.library.upenn.edu/kaplan_map/CityGalleries/web/tc_br17s7_4r_web.jpg","address":"New Brunswick, NJ","name":"D.B. Solomon: Wholesale & Retail Dealer in Cigars","tiff_locat":"tc_br17s7_4r.tif"},"geometry":{"type":"Point","coordinates":[-74.451817,40.486216]}},{"type":"Feature","properties":{"genre":"Trade cards","url":"http://devsceti.library.upenn.edu/kaplan_map/CityGalleries/web/tc_br22s9_1r_web.jpg","address":"Manhattan, NY","name":"M. Schneidt's: Hat and Cap Store","tiff_locat":"tc_br22s9_1r.tif"},"geometry":{"type":"Point","coordinates":[-74.00597,40.714269]}},{"type":"Feature","properties":{"genre":"Trade cards","url":"http://devsceti.library.upenn.edu/kaplan_map/CityGalleries/web/tc_br23s10_4r_web.jpg","address":"Manhattan, NY","name":"Straus: Straus' Popular Bazaar, Hamburgs, Cambric Trimmings, Linen Laces and Pillow Case Laces","tiff_locat":"tc_br23s10_4r.tif"},"geometry":{"type":"Point","coordinates":[-74.00597,40.714269]}},{"type":"Feature","properties":{"genre":"Trade cards","url":"http://devsceti.library.upenn.edu/kaplan_map/CityGalleries/web/tc_br25s28_2r_web.jpg","address":"Buffalo, NY","name":"Jacob Morgenstern: The One Price Hatter","tiff_locat":"tc_br25s28_2r.tif"},"geometry":{"type":"Point","coordinates":[-78.878367,42.886447]}},{"type":"Feature","properties":{"genre":"Trade cards","url":"http://devsceti.library.upenn.edu/kaplan_map/CityGalleries/web/tc_br22s12_2r_web.jpg","address":"Manhattan, NY","name":"N. Schirmer: New York Store, Dealer n Gents' Furnishing Goods, Hats, Caps,Trunks, Valises & Umbrellas","tiff_locat":"tc_br22s12_2r.tif"},"geometry":{"type":"Point","coordinates":[-74.00597,40.714269]}},{"type":"Feature","properties":{"genre":"Trade cards","url":"http://devsceti.library.upenn.edu/kaplan_map/CityGalleries/web/tc_br13s7_1r_web.jpg","address":"Baltimore, MD","name":"Hecht Bros. & Co.: Clothiers","tiff_locat":"tc_br13s7_1r.tif"},"geometry":{"type":"Point","coordinates":[-76.612188,39.29038]}},{"type":"Feature","properties":{"genre":"Trade cards","url":"http://devsceti.library.upenn.edu/kaplan_map/CityGalleries/web/tc_br27s5_1r_web.jpg","address":"New York, NY","name":"Robert Griffin Morris: The Pulse of New York (under the management of Gustave & Charles Frohman)","tiff_locat":"tc_br27s5_1r.tif"},"geometry":{"type":"Point","coordinates":[-74.00597,40.714269]}},{"type":"Feature","properties":{"genre":"Trade cards","url":"http://devsceti.library.upenn.edu/kaplan_map/CityGalleries/web/tc_br32s27_2r_web.jpg","address":"Cleveland, OH","name":"Philip Gutentag: Clothing","tiff_locat":"tc_br32s27_2r.tif"},"geometry":{"type":"Point","coordinates":[-81.69541,41.499499]}},{"type":"Feature","properties":{"genre":"Trade cards","url":"http://devsceti.library.upenn.edu/kaplan_map/CityGalleries/web/tc_br32s37_2r_web.jpg","address":"Columbus, OH","name":"Hayman Bros.: Cotton and Woolen Rags","tiff_locat":"tc_br32s37_2r.tif"},"geometry":{"type":"Point","coordinates":[-82.998786,39.961176]}},{"type":"Feature","properties":{"genre":"Trade cards","url":"http://devsceti.library.upenn.edu/kaplan_map/CityGalleries/web/tc_br8_s20_1r_web.jpg","address":"Clinton, IA","name":"Brumer Bros: Jewelers","tiff_locat":"tc_br8_s20_1r.tif"},"geometry":{"type":"Point","coordinates":[-90.188739,41.844466]}},{"type":"Feature","properties":{"genre":"Trade cards","url":"http://devsceti.library.upenn.edu/kaplan_map/CityGalleries/web/tc_br12_s11_3r_web.jpg","address":"Pawtucket, RI","name":"A. Strauss & Co.: Arcade Clothiers","tiff_locat":"tc_br12_s11_3r.tif"},"geometry":{"type":"Point","coordinates":[-71.382559,41.878708]}},{"type":"Feature","properties":{"genre":"Trade cards","url":"http://devsceti.library.upenn.edu/kaplan_map/CityGalleries/web/tc_br2s47_3r_web.jpg","address":"Lancaster, PA","name":"Joseph Strauss: Dealer in Boots & Shoes","tiff_locat":"tc_br2s47_3r.tif"},"geometry":{"type":"Point","coordinates":[-76.305509,40.037876]}},{"type":"Feature","properties":{"genre":"Trade cards","url":"http://devsceti.library.upenn.edu/kaplan_map/CityGalleries/web/tc_br8_s11_1r_web.jpg","address":"Cedar Rapids, IA","name":"Stanek & Novotny: Fine Boots and Shoes (Guthmann, Carpenter & Telling)","tiff_locat":"tc_br8_s11_1r.tif"},"geometry":{"type":"Point","coordinates":[-91.644067,42.008328]}},{"type":"Feature","properties":{"genre":"Trade cards","url":"http://devsceti.library.upenn.edu/kaplan_map/CityGalleries/web/tc_br27s23_2r_web.jpg","address":"New York, NY","name":"S.E. Isaacson: Havana and Domestic Segars","tiff_locat":"tc_br27s23_2r.tif"},"geometry":{"type":"Point","coordinates":[-74.00597,40.714269]}},{"type":"Feature","properties":{"genre":"Trade cards","url":"http://devsceti.library.upenn.edu/kaplan_map/CityGalleries/web/tc_br14s26_1r_web.jpg","address":"Boston, MA","name":"A. Shuman & Co.: Retail Clothiers","tiff_locat":"tc_br14s26_1r.tif"},"geometry":{"type":"Point","coordinates":[-71.059766,42.358428]}},{"type":"Feature","properties":{"genre":"Trade cards","url":"http://devsceti.library.upenn.edu/kaplan_map/CityGalleries/web/tc_br9s61_1r_web.jpg","address":"New Haven, CT","name":"L.L. Adler: Fancy Goods and Novelties","tiff_locat":"tc_br9s61_1r.tif"},"geometry":{"type":"Point","coordinates":[-72.928158,41.308149]}},{"type":"Feature","properties":{"genre":"Trade cards","url":"http://devsceti.library.upenn.edu/kaplan_map/CityGalleries/web/tc_br13s41_1r_web.jpg","address":"Baltimore, MD","name":"Myers & Reizenstein: Youth's, Boy's and Children's Clothing","tiff_locat":"tc_br13s41_1r.tif"},"geometry":{"type":"Point","coordinates":[-76.612188,39.29038]}},{"type":"Feature","properties":{"genre":"Trade cards","url":"http://devsceti.library.upenn.edu/kaplan_map/CityGalleries/web/tc_br22s12_1r_web.jpg","address":"Manhattan, NY","name":"Scholes Brothers: Teas Warehouses","tiff_locat":"tc_br22s12_1r.tif"},"geometry":{"type":"Point","coordinates":[-74.00597,40.714269]}},{"type":"Feature","properties":{"genre":"Trade cards","url":"http://devsceti.library.upenn.edu/kaplan_map/CityGalleries/web/tc_br22s15_2r_web.jpg","address":"Manhattan, NY","name":"S. Silberman: One Price Boot and Shoe Dealer","tiff_locat":"tc_br22s15_2r.tif"},"geometry":{"type":"Point","coordinates":[-74.00597,40.714269]}},{"type":"Feature","properties":{"genre":"Trade cards","url":"http://devsceti.library.upenn.edu/kaplan_map/CityGalleries/web/tc_br25s19_2r_web.jpg","address":"Buffalo, NY","name":"Altman & Co.: Manufacturing Clothiers & Furnishers","tiff_locat":"tc_br25s19_2r.tif"},"geometry":{"type":"Point","coordinates":[-78.878367,42.886447]}},{"type":"Feature","properties":{"genre":"Trade cards","url":"http://devsceti.library.upenn.edu/kaplan_map/CityGalleries/web/tc_br20s6_5r_web.jpg","address":"Lyons, NY","name":"L. Stern: Ready Made Clothing","tiff_locat":"tc_br20s6_5r.tif"},"geometry":{"type":"Point","coordinates":[-76.990249,43.064226]}},{"type":"Feature","properties":{"genre":"Trade cards","url":"http://devsceti.library.upenn.edu/kaplan_map/CityGalleries/web/tc_br27s8_2r_web.jpg","address":"New York, NY","name":"S. Friedemann: Artificial Plants and Pot Flowers","tiff_locat":"tc_br27s8_2r.tif"},"geometry":{"type":"Point","coordinates":[-74.00597,40.714269]}},{"type":"Feature","properties":{"genre":"Trade cards","url":"http://devsceti.library.upenn.edu/kaplan_map/CityGalleries/web/tc_br9s62_1r_web.jpg","address":"Bridgeport, CT","name":"Fechner Bros.: Watches, Diamonds, Paintings & Notions","tiff_locat":"tc_br9s62_1r.tif"},"geometry":{"type":"Point","coordinates":[-73.20483,41.167037]}},{"type":"Feature","properties":{"genre":"Trade cards","url":"http://devsceti.library.upenn.edu/kaplan_map/CityGalleries/web/tc_br26s17_2r_web.jpg","address":"Elmira, NY","name":"L. Rosenbaum & Sons: Dry Goods and Suits","tiff_locat":"tc_br26s17_2r.tif"},"geometry":{"type":"Point","coordinates":[-76.807727,42.089797]}},{"type":"Feature","properties":{"genre":"Trade cards","url":"http://devsceti.library.upenn.edu/kaplan_map/CityGalleries/web/tc_br26s20_1r_web.jpg","address":"Elmira, NY","name":"L. Rosenbaum & Sons: The Leading Millinery House","tiff_locat":"tc_br26s20_1r.tif"},"geometry":{"type":"Point","coordinates":[-76.807727,42.089797]}},{"type":"Feature","properties":{"genre":"Trade cards","url":"http://devsceti.library.upenn.edu/kaplan_map/CityGalleries/web/tc_br23s8_1r_web.jpg","address":"Manhattan, NY","name":"Jos. Stiner & Co.: Importers, Teas and Coffees","tiff_locat":"tc_br23s8_1r.tif"},"geometry":{"type":"Point","coordinates":[-74.00597,40.714269]}},{"type":"Feature","properties":{"genre":"Trade cards","url":"http://devsceti.library.upenn.edu/kaplan_map/CityGalleries/web/tc_br26s21_3r_web.jpg","address":"Fort Edward, NY","name":"A. Wurtenberg and Co.: Dry Goods, Fancy Goods and Carpets","tiff_locat":"tc_br26s21_3r.tif"},"geometry":{"type":"Point","coordinates":[-73.58456,43.267019]}},{"type":"Feature","properties":{"genre":"Trade cards","url":"http://devsceti.library.upenn.edu/kaplan_map/CityGalleries/web/tc_br10s2_2r_web.jpg","address":"Koutts, IN","name":"H. Rosenbaum: Dry Goods, Boots Shoes Etc","tiff_locat":"tc_br10s2_2r.tif"},"geometry":{"type":"Point","coordinates":[-87.025857,41.316707]}},{"type":"Feature","properties":{"genre":"Trade cards","url":"http://devsceti.library.upenn.edu/kaplan_map/CityGalleries/web/tc_br14s11_4r_web.jpg","address":"Boston, MA","name":"E. Hartshorn & Sons: Druggists","tiff_locat":"tc_br14s11_4r.tif"},"geometry":{"type":"Point","coordinates":[-71.059766,42.358428]}},{"type":"Feature","properties":{"genre":"Trade cards","url":"http://devsceti.library.upenn.edu/kaplan_map/CityGalleries/web/tc_br24s23_2r_web.jpg","address":"Albany, NY","name":"Schermerhorn: Hatter & Furrier","tiff_locat":"tc_br24s23_2r.tif"},"geometry":{"type":"Point","coordinates":[-73.756229,42.652576]}},{"type":"Feature","properties":{"genre":"Trade cards","url":"http://devsceti.library.upenn.edu/kaplan_map/CityGalleries/web/tc_br40s13_1r_web.jpg","address":"Pittsburgh, PA","name":"J. Kaufmann & Bros.: One Price Clothiers","tiff_locat":"tc_br40s13_1r.tif"},"geometry":{"type":"Point","coordinates":[-79.995888,40.440617]}},{"type":"Feature","properties":{"genre":"Trade cards","url":"http://devsceti.library.upenn.edu/kaplan_map/CityGalleries/web/tc_br7s5_1r_web.jpg","address":"San Francisco, CA","name":"Boedefeld & Booksin: Grocers","tiff_locat":"tc_br7s5_1r.tif"},"geometry":{"type":"Point","coordinates":[-122.419419,37.774928]}},{"type":"Feature","properties":{"genre":"Trade cards","url":"http://devsceti.library.upenn.edu/kaplan_map/CityGalleries/web/tc_br19s45_2r_web.jpg","address":"New York, NY","name":"L. Ephraim: Fine Shirts","tiff_locat":"tc_br19s45_2r.tif"},"geometry":{"type":"Point","coordinates":[-74.00597,40.714269]}},{"type":"Feature","properties":{"genre":"Trade cards","url":"http://devsceti.library.upenn.edu/kaplan_map/CityGalleries/web/tc_br18s2_2r_web.jpg","address":"Manhattan, NY","name":"Isidor Moses: Household Outfitting Co.","tiff_locat":"tc_br18s2_2r.tif"},"geometry":{"type":"Point","coordinates":[-74.00597,40.714269]}},{"type":"Feature","properties":{"genre":"Trade cards","url":"http://devsceti.library.upenn.edu/kaplan_map/CityGalleries/web/tc_br23s30_2r_web.jpg","address":"Manhattan, NY","name":"Louis Aldrich and Chas. T. Parsloe: My Partner, a play by Bartley Campbell","tiff_locat":"tc_br23s30_2r.tif"},"geometry":{"type":"Point","coordinates":[-74.00597,40.714269]}},{"type":"Feature","properties":{"genre":"Trade cards","url":"http://devsceti.library.upenn.edu/kaplan_map/CityGalleries/web/tc_br14s9_3r_web.jpg","address":"Boston, MA","name":"McVicker's Theatre: Max Fehrmann in Uncle Isaac!","tiff_locat":"tc_br14s9_3r.tif"},"geometry":{"type":"Point","coordinates":[-71.059766,42.358428]}},{"type":"Feature","properties":{"genre":"Trade cards","url":"http://devsceti.library.upenn.edu/kaplan_map/CityGalleries/web/tc_br18s30_2r_web.jpg","address":"Manhattan, NY","name":"Nathan Schweitzer Co. Inc.: Perishable","tiff_locat":"tc_br18s30_2r.tif"},"geometry":{"type":"Point","coordinates":[-74.00597,40.714269]}},{"type":"Feature","properties":{"genre":"Trade cards","url":"http://devsceti.library.upenn.edu/kaplan_map/CityGalleries/web/tc_br13s38_1r_web.jpg","address":"Baltimore, MD","name":"Wm. Reisinger & Son: Furniture","tiff_locat":"tc_br13s38_1r.tif"},"geometry":{"type":"Point","coordinates":[-76.612188,39.29038]}},{"type":"Feature","properties":{"genre":"Trade cards","url":"http://devsceti.library.upenn.edu/kaplan_map/CityGalleries/web/tc_br19s5_2r_web.jpg","address":"Brooklyn, NY","name":"A. Cohen: China, Glass, Crockery","tiff_locat":"tc_br19s5_2r.tif"},"geometry":{"type":"Point","coordinates":[-73.949576,40.650096]}},{"type":"Feature","properties":{"genre":"Trade cards","url":"http://devsceti.library.upenn.edu/kaplan_map/CityGalleries/web/tc_br32s38_1r_web.jpg","address":"Dayton, OH","name":"Sol. Strauss: Clothier","tiff_locat":"tc_br32s38_1r.tif"},"geometry":{"type":"Point","coordinates":[-84.191608,39.758946]}},{"type":"Feature","properties":{"genre":"Trade cards","url":"http://devsceti.library.upenn.edu/kaplan_map/CityGalleries/web/tc_br32s40_2r_web.jpg","address":"East Palentine, OH","name":"S. Joseph: Clothier and Hatter","tiff_locat":"tc_br32s40_2r.tif"},"geometry":{"type":"Point","coordinates":[-80.540349,40.83395]}},{"type":"Feature","properties":{"genre":"Trade cards","url":"http://devsceti.library.upenn.edu/kaplan_map/CityGalleries/web/tc_br3s2_2r_web.jpg","address":"Chicago, IL","name":"A.A. Dewey: Real Estate Broker","tiff_locat":"tc_br3s2_2r.tif"},"geometry":{"type":"Point","coordinates":[-87.650046,41.850027]}},{"type":"Feature","properties":{"genre":"Trade cards","url":"http://devsceti.library.upenn.edu/kaplan_map/CityGalleries/web/tc_br26s17_1r_web.jpg","address":"Elmira, NY","name":"Chas. Lantaff & Co.: 99 c. and Variety Store","tiff_locat":"tc_br26s17_1r.tif"},"geometry":{"type":"Point","coordinates":[-76.807727,42.089797]}},{"type":"Feature","properties":{"genre":"Trade cards","url":"http://devsceti.library.upenn.edu/kaplan_map/CityGalleries/web/tc_br17s31_1r_web.jpg","address":"Jersey City, NJ","name":"Perlmutter: The Hatter","tiff_locat":"tc_br17s31_1r.tif"},"geometry":{"type":"Point","coordinates":[-74.07764,40.72816]}},{"type":"Feature","properties":{"genre":"Trade cards","url":"http://devsceti.library.upenn.edu/kaplan_map/CityGalleries/web/tc_br23s26_3r_web.jpg","address":"Manhattan, NY","name":"H. Weinhagen: Atomizers","tiff_locat":"tc_br23s26_3r.tif"},"geometry":{"type":"Point","coordinates":[-74.00597,40.714269]}},{"type":"Feature","properties":{"genre":"Trade cards","url":"http://devsceti.library.upenn.edu/kaplan_map/CityGalleries/web/tc_br27s13_1r_web.jpg","address":"New York, NY","name":"Louis R. Grabowsky: Hats and Caps","tiff_locat":"tc_br27s13_1r.tif"},"geometry":{"type":"Point","coordinates":[-74.00597,40.714269]}},{"type":"Feature","properties":{"genre":"Trade cards","url":"http://devsceti.library.upenn.edu/kaplan_map/CityGalleries/web/tc_br39s21_1r_web.jpg","address":"Bethlehem, PA","name":"Young's: Hat, Cap, Fur, Gents' Furnishing House","tiff_locat":"tc_br39s21_1r.tif"},"geometry":{"type":"Point","coordinates":[-75.370456,40.625929]}},{"type":"Feature","properties":{"genre":"Trade cards","url":"http://devsceti.library.upenn.edu/kaplan_map/CityGalleries/web/tc_br15s28_3r_web.jpg","address":"Monroe, WI","name":"S. Lewin & Co.: Dry Goods, Hosiery, Notions","tiff_locat":"tc_br15s28_3r.tif"},"geometry":{"type":"Point","coordinates":[-89.638447,42.601118]}},{"type":"Feature","properties":{"genre":"Trade cards","url":"http://devsceti.library.upenn.edu/kaplan_map/CityGalleries/web/tc_br13s35_1r_web.jpg","address":"Baltimore, MD","name":"J.B. Nyburg: Furniture, Carpets, Oil Cloths, Mattings","tiff_locat":"tc_br13s35_1r.tif"},"geometry":{"type":"Point","coordinates":[-76.612188,39.29038]}},{"type":"Feature","properties":{"genre":"Trade cards","url":"http://devsceti.library.upenn.edu/kaplan_map/CityGalleries/web/tc_br20s3_3r_web.jpg","address":"Lockport, NY","name":"Rosenberg & Co.: Clothiers","tiff_locat":"tc_br20s3_3r.tif"},"geometry":{"type":"Point","coordinates":[-78.690306,43.170606]}},{"type":"Feature","properties":{"genre":"Trade cards","url":"http://devsceti.library.upenn.edu/kaplan_map/CityGalleries/web/tc_br9s62_2r_web.jpg","address":"New Haven, CT","name":"L.L. Adler: Fancy Goods and Novelties","tiff_locat":"tc_br9s62_2r.tif"},"geometry":{"type":"Point","coordinates":[-72.928158,41.308149]}},{"type":"Feature","properties":{"genre":"Trade cards","url":"http://devsceti.library.upenn.edu/kaplan_map/CityGalleries/web/tc_br25s26_3r_web.jpg","address":"Buffalo, NY","name":"Herman W. Loebs: Merchant Tailor","tiff_locat":"tc_br25s26_3r.tif"},"geometry":{"type":"Point","coordinates":[-78.878367,42.886447]}},{"type":"Feature","properties":{"genre":"Trade cards","url":"http://devsceti.library.upenn.edu/kaplan_map/CityGalleries/web/tc_br18s19_1r_web.jpg","address":"Manhattan, NY","name":"Edelstein Bros.: Pawn Brokers","tiff_locat":"tc_br18s19_1r.tif"},"geometry":{"type":"Point","coordinates":[-74.00597,40.714269]}},{"type":"Feature","properties":{"genre":"Trade cards","url":"http://devsceti.library.upenn.edu/kaplan_map/CityGalleries/web/tc_br27s19_1r_web.jpg","address":"New York, NY","name":"Meyer C. Hecht: Furniture","tiff_locat":"tc_br27s19_1r.tif"},"geometry":{"type":"Point","coordinates":[-74.00597,40.714269]}},{"type":"Feature","properties":{"genre":"Trade cards","url":"http://devsceti.library.upenn.edu/kaplan_map/CityGalleries/web/tc_br14s5_2r_web.jpg","address":"Boston, MA","name":"S. Cohen & Co.: Fringes, Passementerie, Laces, Etc.","tiff_locat":"tc_br14s5_2r.tif"},"geometry":{"type":"Point","coordinates":[-71.059766,42.358428]}},{"type":"Feature","properties":{"genre":"Trade cards","url":"http://devsceti.library.upenn.edu/kaplan_map/CityGalleries/web/tc_br8_s10_1r_web.jpg","address":"Elkhart, IN","name":"F.J. Goldman & Co.: Druggist","tiff_locat":"tc_br8_s10_1r.tif"},"geometry":{"type":"Point","coordinates":[-85.976667,41.68199]}},{"type":"Feature","properties":{"genre":"Trade cards","url":"http://devsceti.library.upenn.edu/kaplan_map/CityGalleries/web/tc_br2s16_3r_web.jpg","address":"Boston, MA","name":"H. Askenasy, LL.D.: Translator of Commercial, Legal, Literary and other Documents","tiff_locat":"tc_br2s16_3r.tif"},"geometry":{"type":"Point","coordinates":[-71.059766,42.358428]}},{"type":"Feature","properties":{"genre":"Trade cards","url":"http://devsceti.library.upenn.edu/kaplan_map/CityGalleries/web/tc_br23s17_2r_web.jpg","address":"Manhattan, NY","name":"S. Sulzberger: Dry Goods Palace","tiff_locat":"tc_br23s17_2r.tif"},"geometry":{"type":"Point","coordinates":[-74.00597,40.714269]}},{"type":"Feature","properties":{"genre":"Trade cards","url":"http://devsceti.library.upenn.edu/kaplan_map/CityGalleries/web/tc_br20s16_4r_web.jpg","address":"Penn Yan, NY","name":"J. Block's: Clothing","tiff_locat":"tc_br20s16_4r.tif"},"geometry":{"type":"Point","coordinates":[-77.05386,42.660896]}},{"type":"Feature","properties":{"genre":"Trade cards","url":"http://devsceti.library.upenn.edu/kaplan_map/CityGalleries/web/tc_br17s15_3r_web.jpg","address":"Jersey City, NJ","name":"Max Stadler & Co.: Clothiers","tiff_locat":"tc_br17s15_3r.tif"},"geometry":{"type":"Point","coordinates":[-74.07764,40.72816]}},{"type":"Feature","properties":{"genre":"Trade cards","url":"http://devsceti.library.upenn.edu/kaplan_map/CityGalleries/web/tc_br10s29_1r_web.jpg","address":"Chicago, IL","name":"Yondorf Bros.: Clothiers","tiff_locat":"tc_br10s29_1r.tif"},"geometry":{"type":"Point","coordinates":[-87.650046,41.850027]}},{"type":"Feature","properties":{"genre":"Trade cards","url":"http://devsceti.library.upenn.edu/kaplan_map/CityGalleries/web/tc_br2s25_8r_web.jpg","address":"Albany, NY","name":"J. Friedenheimer: Dealer in Hats, Caps, Furs","tiff_locat":"tc_br2s25_8r.tif"},"geometry":{"type":"Point","coordinates":[-73.756229,42.652576]}},{"type":"Feature","properties":{"genre":"Trade cards","url":"http://devsceti.library.upenn.edu/kaplan_map/CityGalleries/web/tc_br40s13_3r_web.jpg","address":"Pittsburgh, PA","name":"J. Kaufmann & Bros.: One Price Clothiers","tiff_locat":"tc_br40s13_3r.tif"},"geometry":{"type":"Point","coordinates":[-79.995888,40.440617]}},{"type":"Feature","properties":{"genre":"Trade cards","url":"http://devsceti.library.upenn.edu/kaplan_map/CityGalleries/web/tc_br9s2_3r_web.jpg","address":"Danbury, CT","name":"Samuel Meyers: Fine Ready Made Clothing","tiff_locat":"tc_br9s2_3r.tif"},"geometry":{"type":"Point","coordinates":[-73.454008,41.394816]}},{"type":"Feature","properties":{"genre":"Trade cards","url":"http://devsceti.library.upenn.edu/kaplan_map/CityGalleries/web/tc_br19s12_3r_web.jpg","address":"New York, NY","name":"S. Bloomfield: Fine Shoes","tiff_locat":"tc_br19s12_3r.tif"},"geometry":{"type":"Point","coordinates":[-74.00597,40.714269]}},{"type":"Feature","properties":{"genre":"Trade cards","url":"http://devsceti.library.upenn.edu/kaplan_map/CityGalleries/web/tc_br20s6_1v_web.jpg","address":"Lyons, NY","name":"L. Stern: Ready Made Clothing","tiff_locat":"tc_br20s6_1v.tif"},"geometry":{"type":"Point","coordinates":[-76.990249,43.064226]}},{"type":"Feature","properties":{"genre":"Trade cards","url":"http://devsceti.library.upenn.edu/kaplan_map/CityGalleries/web/tc_br39s59_4r_web.jpg","address":"Lancaster, PA","name":"David Rose: Parasols and Umbrellas","tiff_locat":"tc_br39s59_4r.tif"},"geometry":{"type":"Point","coordinates":[-76.305509,40.037876]}},{"type":"Feature","properties":{"genre":"Trade cards","url":"http://devsceti.library.upenn.edu/kaplan_map/CityGalleries/web/tc_br9s65_2r_web.jpg","address":"Bridgeport, CT","name":"Fechner Bros.: Watches, Diamonds, Paintings & Notions","tiff_locat":"tc_br9s65_2r.tif"},"geometry":{"type":"Point","coordinates":[-73.20483,41.167037]}},{"type":"Feature","properties":{"genre":"Trade cards","url":"http://devsceti.library.upenn.edu/kaplan_map/CityGalleries/web/tc_br22s6_1r_web.jpg","address":"Manhattan, NY","name":"Rosendorff & Sons: Dry Goods (M. Rosendorff & Sons: Importers, Jobbers & Retailers of Dry Goods, Hosiery & Fancy Goods)","tiff_locat":"tc_br22s6_1r.tif"},"geometry":{"type":"Point","coordinates":[-74.00597,40.714269]}},{"type":"Feature","properties":{"genre":"Trade cards","url":"http://devsceti.library.upenn.edu/kaplan_map/CityGalleries/web/tc_br18s7_2r_web.jpg","address":"Manhattan, NY","name":"H. Lehmann: Importer of Human Hair, and Ornamental Hair Manufacturer","tiff_locat":"tc_br18s7_2r.tif"},"geometry":{"type":"Point","coordinates":[-74.00597,40.714269]}},{"type":"Feature","properties":{"genre":"Trade cards","url":"http://devsceti.library.upenn.edu/kaplan_map/CityGalleries/web/tc_br19s17_3r_web.jpg","address":"New York, NY","name":"Samuel Cohen: Shoes","tiff_locat":"tc_br19s17_3r.tif"},"geometry":{"type":"Point","coordinates":[-74.00597,40.714269]}},{"type":"Feature","properties":{"genre":"Trade cards","url":"http://devsceti.library.upenn.edu/kaplan_map/CityGalleries/web/tc_br26s19_4r_web.jpg","address":"Elmira, NY","name":"L. Rosenbaum & Sons: Dry Goods and Suits","tiff_locat":"tc_br26s19_4r.tif"},"geometry":{"type":"Point","coordinates":[-76.807727,42.089797]}},{"type":"Feature","properties":{"genre":"Trade cards","url":"http://devsceti.library.upenn.edu/kaplan_map/CityGalleries/web/tc_br2s4_2r_web.jpg","address":"Colorado Springs, CO","name":"Joe Kadish: Second Hnad Goods Bought and Sold","tiff_locat":"tc_br2s4_2r.tif"},"geometry":{"type":"Point","coordinates":[-104.821359,38.833877]}},{"type":"Feature","properties":{"genre":"Trade cards","url":"http://devsceti.library.upenn.edu/kaplan_map/CityGalleries/web/tc_br34s10_2r_web.jpg","address":"Philadelphia, PA","name":"P. Fleischner & Co.: Fine Stationery and Fancy Leather Goods","tiff_locat":"tc_br34s10_2r.tif"},"geometry":{"type":"Point","coordinates":[-75.163789,39.952339]}},{"type":"Feature","properties":{"genre":"Trade cards","url":"http://devsceti.library.upenn.edu/kaplan_map/CityGalleries/web/tc_br29s9_5r_web.jpg","address":"Rochester, NY","name":"Rosenblatt, Oaks & Geraghty: Millinery","tiff_locat":"tc_br29s9_5r.tif"},"geometry":{"type":"Point","coordinates":[-77.615559,43.154776]}},{"type":"Feature","properties":{"genre":"Trade cards","url":"http://devsceti.library.upenn.edu/kaplan_map/CityGalleries/web/tc_br25s5_2r_web.jpg","address":"Binghamton, NY","name":"J. Levy: Star Clothing House","tiff_locat":"tc_br25s5_2r.tif"},"geometry":{"type":"Point","coordinates":[-75.917967,42.098689]}},{"type":"Feature","properties":{"genre":"Trade cards","url":"http://devsceti.library.upenn.edu/kaplan_map/CityGalleries/web/tc_br14s6_2r_web.jpg","address":"Boston, MA","name":"S. Cohen & Co.: Fringes, Passementerie, Laces, Etc.","tiff_locat":"tc_br14s6_2r.tif"},"geometry":{"type":"Point","coordinates":[-71.059766,42.358428]}},{"type":"Feature","properties":{"genre":"Trade cards","url":"http://devsceti.library.upenn.edu/kaplan_map/CityGalleries/web/tc_br35s11_1r_web.jpg","address":"Philadelphia, PA","name":"Ely, Hunsberger & Ely","tiff_locat":"tc_br35s11_1r.tif"},"geometry":{"type":"Point","coordinates":[-75.163789,39.952339]}},{"type":"Feature","properties":{"genre":"Trade cards","url":"http://devsceti.library.upenn.edu/kaplan_map/CityGalleries/web/tc_br20s6_4r_web.jpg","address":"Lyons, NY","name":"L. Stern: Ready Made Clothing","tiff_locat":"tc_br20s6_4r.tif"},"geometry":{"type":"Point","coordinates":[-76.990249,43.064226]}},{"type":"Feature","properties":{"genre":"Trade cards","url":"http://devsceti.library.upenn.edu/kaplan_map/CityGalleries/web/tc_br9s6_1r_web.jpg","address":"Danbury, CT","name":"Julius Meyers: Hatter and Gents Furnisher","tiff_locat":"tc_br9s6_1r.tif"},"geometry":{"type":"Point","coordinates":[-73.454008,41.394816]}},{"type":"Feature","properties":{"genre":"Trade cards","url":"http://devsceti.library.upenn.edu/kaplan_map/CityGalleries/web/tc_br10s7_3r_web.jpg","address":"Chicago, IL","name":"Rosenstein M'F'G Co.: Cream of Tanoline","tiff_locat":"tc_br10s7_3r.tif"},"geometry":{"type":"Point","coordinates":[-87.650046,41.850027]}},{"type":"Feature","properties":{"genre":"Trade cards","url":"http://devsceti.library.upenn.edu/kaplan_map/CityGalleries/web/tc_br4s1_3r_web.jpg","address":"Las Vegas, NM","name":"Jake Block: The Boston Clothing House","tiff_locat":"tc_br4s1_3r.tif"},"geometry":{"type":"Point","coordinates":[-105.223898,35.593926]}},{"type":"Feature","properties":{"genre":"Trade cards","url":"http://devsceti.library.upenn.edu/kaplan_map/CityGalleries/web/tc_br6s15_1r_web.jpg","address":"Oakland, CA","name":"Magnes': Corset & Underwear House","tiff_locat":"tc_br6s15_1r.tif"},"geometry":{"type":"Point","coordinates":[-122.270798,37.804369]}},{"type":"Feature","properties":{"genre":"Trade cards","url":"http://devsceti.library.upenn.edu/kaplan_map/CityGalleries/web/tc_br21s9_1r_web.jpg","address":"New York, NY","name":"Herman Loeb: Armant's Perfumes","tiff_locat":"tc_br21s9_1r.tif"},"geometry":{"type":"Point","coordinates":[-74.00597,40.714269]}},{"type":"Feature","properties":{"genre":"Trade cards","url":"http://devsceti.library.upenn.edu/kaplan_map/CityGalleries/web/tc_br14s6_5r_web.jpg","address":"Boston, MA","name":"S. Cohen & Co.: Fringes, Passementerie, Laces, Etc.","tiff_locat":"tc_br14s6_5r.tif"},"geometry":{"type":"Point","coordinates":[-71.059766,42.358428]}},{"type":"Feature","properties":{"genre":"Trade cards","url":"http://devsceti.library.upenn.edu/kaplan_map/CityGalleries/web/tc_br19s3_3r_web.jpg","address":"New York, NY","name":"Abramson & Drechsler: Artistic Embroidery","tiff_locat":"tc_br19s3_3r.tif"},"geometry":{"type":"Point","coordinates":[-74.00597,40.714269]}},{"type":"Feature","properties":{"genre":"Trade cards","url":"http://devsceti.library.upenn.edu/kaplan_map/CityGalleries/web/tc_br18s19_4r_web.jpg","address":"Manhattan, NY","name":"Adolph Isaacsen: Sure Pop (powder insect killer)","tiff_locat":"tc_br18s19_4r.tif"},"geometry":{"type":"Point","coordinates":[-74.00597,40.714269]}},{"type":"Feature","properties":{"genre":"Trade cards","url":"http://devsceti.library.upenn.edu/kaplan_map/CityGalleries/web/tc_br9s54_1r_web.jpg","address":"Meriden, CT","name":"Baum & Bernstein: Clothiers and Merchant Tailors","tiff_locat":"tc_br9s54_1r.tif"},"geometry":{"type":"Point","coordinates":[-72.807038,41.538146]}},{"type":"Feature","properties":{"genre":"Trade cards","url":"http://devsceti.library.upenn.edu/kaplan_map/CityGalleries/web/tc_br14s13_1r_web.jpg","address":"Boston, MA","name":"Ben. Levy & Co.: Levy's Parisian Cream","tiff_locat":"tc_br14s13_1r.tif"},"geometry":{"type":"Point","coordinates":[-71.059766,42.358428]}},{"type":"Feature","properties":{"genre":"Trade cards","url":"http://devsceti.library.upenn.edu/kaplan_map/CityGalleries/web/tc_br32s18_2r_web.jpg","address":"Cincinnati, OH","name":"Louis Snider's Sons: Paper Dealers","tiff_locat":"tc_br32s18_2r.tif"},"geometry":{"type":"Point","coordinates":[-84.456887,39.161997]}},{"type":"Feature","properties":{"genre":"Trade cards","url":"http://devsceti.library.upenn.edu/kaplan_map/CityGalleries/web/tc_br17s59_1r_web.jpg","address":"Paterson, NJ","name":"Stern and Sonneborn: Clothing","tiff_locat":"tc_br17s59_1r.tif"},"geometry":{"type":"Point","coordinates":[-74.171807,40.916769]}},{"type":"Feature","properties":{"genre":"Trade cards","url":"http://devsceti.library.upenn.edu/kaplan_map/CityGalleries/web/tc_br39s21_2r_web.jpg","address":"Bethlehem, PA","name":"Young's: Hat, Cap, Fur, Gents' Furnishing House","tiff_locat":"tc_br39s21_2r.tif"},"geometry":{"type":"Point","coordinates":[-75.370456,40.625929]}},{"type":"Feature","properties":{"genre":"Trade cards","url":"http://devsceti.library.upenn.edu/kaplan_map/CityGalleries/web/tc_br24s9_1r_web.jpg","address":"Albany, NY","name":"J. Levy: Capitol Hat Store","tiff_locat":"tc_br24s9_1r.tif"},"geometry":{"type":"Point","coordinates":[-73.756229,42.652576]}},{"type":"Feature","properties":{"genre":"Trade cards","url":"http://devsceti.library.upenn.edu/kaplan_map/CityGalleries/web/tc_br39s51_4r_web.jpg","address":"Downington, PA","name":"Mrs. Tillie H. Kurtz","tiff_locat":"tc_br39s51_4r.tif"},"geometry":{"type":"Point","coordinates":[-75.703269,40.006496]}},{"type":"Feature","properties":{"genre":"Trade cards","url":"http://devsceti.library.upenn.edu/kaplan_map/CityGalleries/web/tc_br18s10_4r_web.jpg","address":"Manhattan, NY","name":"S. Levy & Co.: Manufacturers of High Grade Cigars(Sigismund Levy, George R. Seward, Eugene Levy)","tiff_locat":"tc_br18s10_4r.tif"},"geometry":{"type":"Point","coordinates":[-74.00597,40.714269]}},{"type":"Feature","properties":{"genre":"Trade cards","url":"http://devsceti.library.upenn.edu/kaplan_map/CityGalleries/web/tc_br8_s3_3r_web.jpg","address":"Denver, CO","name":"J. Jay Joslin: Dry Goods","tiff_locat":"tc_br8_s3_3r.tif"},"geometry":{"type":"Point","coordinates":[-104.984699,39.739147]}},{"type":"Feature","properties":{"genre":"Trade cards","url":"http://devsceti.library.upenn.edu/kaplan_map/CityGalleries/web/tc_br9s34_2r_web.jpg","address":"Hartford, CT","name":"S.I. Freeman's: Clothing Bazaar","tiff_locat":"tc_br9s34_2r.tif"},"geometry":{"type":"Point","coordinates":[-72.68509,41.763707]}},{"type":"Feature","properties":{"genre":"Trade cards","url":"http://devsceti.library.upenn.edu/kaplan_map/CityGalleries/web/tc_br39s62_3r_web.jpg","address":"Lancaster, PA","name":"Miss J. Reinstein: Notions and Trimmings","tiff_locat":"tc_br39s62_3r.tif"},"geometry":{"type":"Point","coordinates":[-76.305509,40.037876]}},{"type":"Feature","properties":{"genre":"Trade cards","url":"http://devsceti.library.upenn.edu/kaplan_map/CityGalleries/web/tc_br24s13_2r_web.jpg","address":"Albany, NY","name":"Mandelbaum: Boots, Shoes and Slippers","tiff_locat":"tc_br24s13_2r.tif"},"geometry":{"type":"Point","coordinates":[-73.756229,42.652576]}},{"type":"Feature","properties":{"genre":"Trade cards","url":"http://devsceti.library.upenn.edu/kaplan_map/CityGalleries/web/tc_br21s18_3r_web.jpg","address":"New York, NY","name":"George Meindel: Florist","tiff_locat":"tc_br21s18_3r.tif"},"geometry":{"type":"Point","coordinates":[-74.00597,40.714269]}},{"type":"Feature","properties":{"genre":"Trade cards","url":"http://devsceti.library.upenn.edu/kaplan_map/CityGalleries/web/tc_br27s1_7r_web.jpg","address":"New York, NY","name":"Hershfield & Silverstone: Shirt Makers and Men's Furnishers","tiff_locat":"tc_br27s1_7r.tif"},"geometry":{"type":"Point","coordinates":[-74.00597,40.714269]}},{"type":"Feature","properties":{"genre":"Trade cards","url":"http://devsceti.library.upenn.edu/kaplan_map/CityGalleries/web/tc_br19s21_1r_web.jpg","address":"New York, NY","name":"David's Prize Soap Co.","tiff_locat":"tc_br19s21_1r.tif"},"geometry":{"type":"Point","coordinates":[-74.00597,40.714269]}},{"type":"Feature","properties":{"genre":"Trade cards","url":"http://devsceti.library.upenn.edu/kaplan_map/CityGalleries/web/tc_br28s16_2r_web.jpg","address":"Syracuse, NY","name":"Charles F. Saul: Seeds, Hardware, etc.","tiff_locat":"tc_br28s16_2r.tif"},"geometry":{"type":"Point","coordinates":[-76.14742,43.048118]}},{"type":"Feature","properties":{"genre":"Trade cards","url":"http://devsceti.library.upenn.edu/kaplan_map/CityGalleries/web/tc_br23s17_4r_web.jpg","address":"Manhattan, NY","name":"S. Sulzberger: Dry Goods, Millinery and Fancy Goods","tiff_locat":"tc_br23s17_4r.tif"},"geometry":{"type":"Point","coordinates":[-74.00597,40.714269]}},{"type":"Feature","properties":{"genre":"Trade cards","url":"http://devsceti.library.upenn.edu/kaplan_map/CityGalleries/web/tc_br14s18_1r_web.jpg","address":"Boston, MA","name":"A. Shuman & Co.: Boys' Retail Department (Hammersmith)","tiff_locat":"tc_br14s18_1r.tif"},"geometry":{"type":"Point","coordinates":[-71.059766,42.358428]}},{"type":"Feature","properties":{"genre":"Trade cards","url":"http://devsceti.library.upenn.edu/kaplan_map/CityGalleries/web/tc_br10s9_2r_web.jpg","address":"Chicago, IL","name":"Mme. D. Potsdamer: Hats, Bonnets, Birds, Feathers, Ribbons, Velvets, Etc.","tiff_locat":"tc_br10s9_2r.tif"},"geometry":{"type":"Point","coordinates":[-87.650046,41.850027]}},{"type":"Feature","properties":{"genre":"Trade cards","url":"http://devsceti.library.upenn.edu/kaplan_map/CityGalleries/web/tc_br17s40_2r_web.jpg","address":"Newark, NJ","name":"Stoutenburgh & Co.: Newark Clothiers","tiff_locat":"tc_br17s40_2r.tif"},"geometry":{"type":"Point","coordinates":[-74.17237,40.735656]}},{"type":"Feature","properties":{"genre":"Trade cards","url":"http://devsceti.library.upenn.edu/kaplan_map/CityGalleries/web/tc_br39s7_2r_web.jpg","address":"Allegheny, PA","name":"Strassburger and Joseph: Tailors and Clothiers","tiff_locat":"tc_br39s7_2r.tif"},"geometry":{"type":"Point","coordinates":[-80.016159,40.45062]}},{"type":"Feature","properties":{"genre":"Trade cards","url":"http://devsceti.library.upenn.edu/kaplan_map/CityGalleries/web/tc_br39s40_2r_web.jpg","address":"Honesdale, PA","name":"Joseph Fox's: New Philadelphia Clothing House","tiff_locat":"tc_br39s40_2r.tif"},"geometry":{"type":"Point","coordinates":[-75.258789,41.576757]}},{"type":"Feature","properties":{"genre":"Trade cards","url":"http://devsceti.library.upenn.edu/kaplan_map/CityGalleries/web/tc_br15s8_2r_web.jpg","address":"Grand Rapids, MI","name":"Mrs. E. Bienemann: Fashionable Milliner","tiff_locat":"tc_br15s8_2r.tif"},"geometry":{"type":"Point","coordinates":[-85.668089,42.963359]}},{"type":"Feature","properties":{"genre":"Trade cards","url":"http://devsceti.library.upenn.edu/kaplan_map/CityGalleries/web/tc_br18s28_1r_web.jpg","address":"Manhattan, NY","name":"Stadler & Co.: Manufacturers of Men's & Boys' Clothing (Jas. R. Pitcher)","tiff_locat":"tc_br18s28_1r.tif"},"geometry":{"type":"Point","coordinates":[-74.00597,40.714269]}},{"type":"Feature","properties":{"genre":"Trade cards","url":"http://devsceti.library.upenn.edu/kaplan_map/CityGalleries/web/tc_br9s6_3r_web.jpg","address":"Danbury, CT","name":"Julius Meyers: Popular Hatter","tiff_locat":"tc_br9s6_3r.tif"},"geometry":{"type":"Point","coordinates":[-73.454008,41.394816]}},{"type":"Feature","properties":{"genre":"Trade cards","url":"http://devsceti.library.upenn.edu/kaplan_map/CityGalleries/web/tc_br10s24_4r_web.jpg","address":"Chicago, IL","name":"Selz, Schwab & Co.: Selz \"Rock Bottom\" Shoes","tiff_locat":"tc_br10s24_4r.tif"},"geometry":{"type":"Point","coordinates":[-87.650046,41.850027]}},{"type":"Feature","properties":{"genre":"Trade cards","url":"http://devsceti.library.upenn.edu/kaplan_map/CityGalleries/web/tc_br39s42_8r_web.jpg","address":"Lancaster, PA","name":"Astrich Brothers': Lancaster Bazaar","tiff_locat":"tc_br39s42_8r.tif"},"geometry":{"type":"Point","coordinates":[-76.305509,40.037876]}},{"type":"Feature","properties":{"genre":"Trade cards","url":"http://devsceti.library.upenn.edu/kaplan_map/CityGalleries/web/tc_br36s22_4r_web.jpg","address":"Philadelphia, PA","name":"C. Raphael: Clothing","tiff_locat":"tc_br36s22_4r.tif"},"geometry":{"type":"Point","coordinates":[-75.163789,39.952339]}},{"type":"Feature","properties":{"genre":"Trade cards","url":"http://devsceti.library.upenn.edu/kaplan_map/CityGalleries/web/tc_br21s28_1r_web.jpg","address":"New York, NY","name":"Peisner's: Millinery","tiff_locat":"tc_br21s28_1r.tif"},"geometry":{"type":"Point","coordinates":[-74.00597,40.714269]}},{"type":"Feature","properties":{"genre":"Trade cards","url":"http://devsceti.library.upenn.edu/kaplan_map/CityGalleries/web/tc_br18s1_4r_web.jpg","address":"Brooklyn, NY","name":"Mrs. S.M. Pinckney: Fashionable Dress Making","tiff_locat":"tc_br18s1_4r.tif"},"geometry":{"type":"Point","coordinates":[-73.949576,40.650096]}},{"type":"Feature","properties":{"genre":"Trade cards","url":"http://devsceti.library.upenn.edu/kaplan_map/CityGalleries/web/tc_br9s69_4r_web.jpg","address":"New Haven, CT","name":"S. Silverthau & Son: Jewelers","tiff_locat":"tc_br9s69_4r.tif"},"geometry":{"type":"Point","coordinates":[-72.928158,41.308149]}},{"type":"Feature","properties":{"genre":"Trade cards","url":"http://devsceti.library.upenn.edu/kaplan_map/CityGalleries/web/tc_br18s13_2r_web.jpg","address":"Manhattan, NY","name":"The Feigel Car Company: Manufacturers of Steam Cars and Street Cars (Michael Feigel; Michael Feigel, Jr.)","tiff_locat":"tc_br18s13_2r.tif"},"geometry":{"type":"Point","coordinates":[-74.00597,40.714269]}},{"type":"Feature","properties":{"genre":"Trade cards","url":"http://devsceti.library.upenn.edu/kaplan_map/CityGalleries/web/tc_br23s26_1r_web.jpg","address":"Manhattan, NY","name":"Weiner the Tailor","tiff_locat":"tc_br23s26_1r.tif"},"geometry":{"type":"Point","coordinates":[-74.00597,40.714269]}},{"type":"Feature","properties":{"genre":"Trade cards","url":"http://devsceti.library.upenn.edu/kaplan_map/CityGalleries/web/tc_br14s15_3r_web.jpg","address":"Boston, MA","name":"N.A. Moses: Fine Boots and Shoes","tiff_locat":"tc_br14s15_3r.tif"},"geometry":{"type":"Point","coordinates":[-71.059766,42.358428]}},{"type":"Feature","properties":{"genre":"Trade cards","url":"http://devsceti.library.upenn.edu/kaplan_map/CityGalleries/web/tc_br25s25_1r_web.jpg","address":"Buffalo, NY","name":"L. Garson & Co.: Clothing, Merchants for J.W. Rosenthal Boys Clothing","tiff_locat":"tc_br25s25_1r.tif"},"geometry":{"type":"Point","coordinates":[-78.878367,42.886447]}},{"type":"Feature","properties":{"genre":"Trade cards","url":"http://devsceti.library.upenn.edu/kaplan_map/CityGalleries/web/tc_br24s4_1r_web.jpg","address":"Albany, NY","name":"Bloomingdale's: Dry Goods and Gents' Furnishing Goods","tiff_locat":"tc_br24s4_1r.tif"},"geometry":{"type":"Point","coordinates":[-73.756229,42.652576]}},{"type":"Feature","properties":{"genre":"Trade cards","url":"http://devsceti.library.upenn.edu/kaplan_map/CityGalleries/web/tc_br14s26_2r_web.jpg","address":"Boston, MA","name":"A. Shuman & Co.: Retail Clothiers","tiff_locat":"tc_br14s26_2r.tif"},"geometry":{"type":"Point","coordinates":[-71.059766,42.358428]}},{"type":"Feature","properties":{"genre":"Trade cards","url":"http://devsceti.library.upenn.edu/kaplan_map/CityGalleries/web/tc_br2s21_2r_web.jpg","address":"Asbury Park, NJ","name":"S.A. Selleck: Shaving, Hair Cutting & Dyeing Saloon","tiff_locat":"tc_br2s21_2r.tif"},"geometry":{"type":"Point","coordinates":[-74.012076,40.220389]}},{"type":"Feature","properties":{"genre":"Trade cards","url":"http://devsceti.library.upenn.edu/kaplan_map/CityGalleries/web/tc_br2s15_1r_web.jpg","address":"Detroit, MI","name":"G.L. Glazier: Managing Agent for Glazier's Literary Coterie","tiff_locat":"tc_br2s15_1r.tif"},"geometry":{"type":"Point","coordinates":[-83.045749,42.331426]}},{"type":"Feature","properties":{"genre":"Trade cards","url":"http://devsceti.library.upenn.edu/kaplan_map/CityGalleries/web/tc_br35s16_2r_web.jpg","address":"Philadelphia, PA","name":"Levi Bros.: Merchant Tailors & Clothiers","tiff_locat":"tc_br35s16_2r.tif"},"geometry":{"type":"Point","coordinates":[-75.163789,39.952339]}},{"type":"Feature","properties":{"genre":"Trade cards","url":"http://devsceti.library.upenn.edu/kaplan_map/CityGalleries/web/tc_br32s18_4r_web.jpg","address":"Cincinnati, OH","name":"Spielman Brothers: Dry Goods","tiff_locat":"tc_br32s18_4r.tif"},"geometry":{"type":"Point","coordinates":[-84.456887,39.161997]}},{"type":"Feature","properties":{"genre":"Trade cards","url":"http://devsceti.library.upenn.edu/kaplan_map/CityGalleries/web/tc_br2s7_3r_web.jpg","address":"Indianapolis, IN","name":"Born & Co.: Dealers in Furniture, Carpets, and Stoves","tiff_locat":"tc_br2s7_3r.tif"},"geometry":{"type":"Point","coordinates":[-86.158037,39.768377]}},{"type":"Feature","properties":{"genre":"Trade cards","url":"http://devsceti.library.upenn.edu/kaplan_map/CityGalleries/web/tc_br10s11_3r_web.jpg","address":"Chicago, IL","name":"Glaser, Kohn & Co.: Grocers","tiff_locat":"tc_br10s11_3r.tif"},"geometry":{"type":"Point","coordinates":[-87.650046,41.850027]}},{"type":"Feature","properties":{"genre":"Trade cards","url":"http://devsceti.library.upenn.edu/kaplan_map/CityGalleries/web/tc_br17s24_1r_web.jpg","address":"Newark, NJ","name":"R. Bornstein","tiff_locat":"tc_br17s24_1r.tif"},"geometry":{"type":"Point","coordinates":[-74.17237,40.735656]}},{"type":"Feature","properties":{"genre":"Trade cards","url":"http://devsceti.library.upenn.edu/kaplan_map/CityGalleries/web/tc_br19s13_4r_web.jpg","address":"New York, NY","name":"S. Blumenthal: Housekeeper's Emporium","tiff_locat":"tc_br19s13_4r.tif"},"geometry":{"type":"Point","coordinates":[-74.00597,40.714269]}},{"type":"Feature","properties":{"genre":"Trade cards","url":"http://devsceti.library.upenn.edu/kaplan_map/CityGalleries/web/tc_br15s3_3r_web.jpg","address":"Hastings, MI","name":"Lewis Stern: Self-Adjusting Corset","tiff_locat":"tc_br15s3_3r.tif"},"geometry":{"type":"Point","coordinates":[-85.290838,42.645867]}},{"type":"Feature","properties":{"genre":"Trade cards","url":"http://devsceti.library.upenn.edu/kaplan_map/CityGalleries/web/tc_br2s59_1r_web.jpg","address":"Unknown, NY","name":"Audy Schlosser's \"\"Big Hit\"\": Finest Smoke on Earth","tiff_locat":"tc_br2s59_1r.tif"},"geometry":{"type":"Point","coordinates":[-75.499896,43.000346]}},{"type":"Feature","properties":{"genre":"Trade cards","url":"http://devsceti.library.upenn.edu/kaplan_map/CityGalleries/web/tc_br18s3_7r_web.jpg","address":"Manhattan, NY","name":"H. Seidenberg: Manufacturer: The After-Lunch Cigarettes","tiff_locat":"tc_br18s3_7r.tif"},"geometry":{"type":"Point","coordinates":[-74.00597,40.714269]}},{"type":"Feature","properties":{"genre":"Trade cards","url":"http://devsceti.library.upenn.edu/kaplan_map/CityGalleries/web/tc_br23s23_2r_web.jpg","address":"Manhattan, NY","name":"Wachsman's: Vienna Cafe and Lunch Room for Ladies and Gentlemen","tiff_locat":"tc_br23s23_2r.tif"},"geometry":{"type":"Point","coordinates":[-74.00597,40.714269]}},{"type":"Feature","properties":{"genre":"Trade cards","url":"http://devsceti.library.upenn.edu/kaplan_map/CityGalleries/web/tc_br14s15_1r_web.jpg","address":"Boston, MA","name":"Edward Kakas: Manufacturer of Furs","tiff_locat":"tc_br14s15_1r.tif"},"geometry":{"type":"Point","coordinates":[-71.059766,42.358428]}},{"type":"Feature","properties":{"genre":"Trade cards","url":"http://devsceti.library.upenn.edu/kaplan_map/CityGalleries/web/tc_br26s1_3r_web.jpg","address":"Canandaigua, NY","name":"E. Weisenbeck: Rochester Clothing House","tiff_locat":"tc_br26s1_3r.tif"},"geometry":{"type":"Point","coordinates":[-77.288037,42.874226]}},{"type":"Feature","properties":{"genre":"Trade cards","url":"http://devsceti.library.upenn.edu/kaplan_map/CityGalleries/web/tc_br24s22_3r_web.jpg","address":"Albany, NY","name":"Julius Saul: Leading Clothier","tiff_locat":"tc_br24s22_3r.tif"},"geometry":{"type":"Point","coordinates":[-73.756229,42.652576]}},{"type":"Feature","properties":{"genre":"Trade cards","url":"http://devsceti.library.upenn.edu/kaplan_map/CityGalleries/web/tc_br25s3_2r_web.jpg","address":"Ballston Spa, NY","name":"Louis L. Cohn: New Partner of L. Henry, The Leading Clothier","tiff_locat":"tc_br25s3_2r.tif"},"geometry":{"type":"Point","coordinates":[-73.849006,43.000908]}},{"type":"Feature","properties":{"genre":"Trade cards","url":"http://devsceti.library.upenn.edu/kaplan_map/CityGalleries/web/tc_br2s17_2r_web.jpg","address":"Boston, MA","name":"Liberty Restaurant Co.","tiff_locat":"tc_br2s17_2r.tif"},"geometry":{"type":"Point","coordinates":[-71.059766,42.358428]}},{"type":"Feature","properties":{"genre":"Trade cards","url":"http://devsceti.library.upenn.edu/kaplan_map/CityGalleries/web/tc_br9s70_2r_web.jpg","address":"New Haven, CT","name":"S. Silverthau & Son: Jewelers","tiff_locat":"tc_br9s70_2r.tif"},"geometry":{"type":"Point","coordinates":[-72.928158,41.308149]}},{"type":"Feature","properties":{"genre":"Trade cards","url":"http://devsceti.library.upenn.edu/kaplan_map/CityGalleries/web/tc_br18s11_3r_web.jpg","address":"Manhattan, NY","name":"Marx Brothers: Gloves, Folding Scissors","tiff_locat":"tc_br18s11_3r.tif"},"geometry":{"type":"Point","coordinates":[-74.00597,40.714269]}},{"type":"Feature","properties":{"genre":"Trade cards","url":"http://devsceti.library.upenn.edu/kaplan_map/CityGalleries/web/tc_br15s6_2r_web.jpg","address":"Detroit, MI","name":"Mrs. D. Cohen: Fancy Goods, Dry Goods, Gents Furnishings, Millinery","tiff_locat":"tc_br15s6_2r.tif"},"geometry":{"type":"Point","coordinates":[-83.045749,42.331426]}},{"type":"Feature","properties":{"genre":"Trade cards","url":"http://devsceti.library.upenn.edu/kaplan_map/CityGalleries/web/tc_br2s29_1r_web.jpg","address":"Cleveland, OH","name":"H.M. Strauss & Co.: Fruit Commission Merchants","tiff_locat":"tc_br2s29_1r.tif"},"geometry":{"type":"Point","coordinates":[-81.69541,41.499499]}},{"type":"Feature","properties":{"genre":"Trade cards","url":"http://devsceti.library.upenn.edu/kaplan_map/CityGalleries/web/tc_br39s42_6r_web.jpg","address":"Lancaster, PA","name":"Astrich Brothers': Lancaster Bazaar","tiff_locat":"tc_br39s42_6r.tif"},"geometry":{"type":"Point","coordinates":[-76.305509,40.037876]}},{"type":"Feature","properties":{"genre":"Trade cards","url":"http://devsceti.library.upenn.edu/kaplan_map/CityGalleries/web/tc_br2s22_1r_web.jpg","address":"Newark, NJ","name":"M. & N. Meyer's: Sale and Exchange Stables","tiff_locat":"tc_br2s22_1r.tif"},"geometry":{"type":"Point","coordinates":[-74.17237,40.735656]}},{"type":"Feature","properties":{"genre":"Trade cards","url":"http://devsceti.library.upenn.edu/kaplan_map/CityGalleries/web/tc_br21s23_1r_web.jpg","address":"New York, NY","name":"Nathan's: Corset Shoe","tiff_locat":"tc_br21s23_1r.tif"},"geometry":{"type":"Point","coordinates":[-74.00597,40.714269]}},{"type":"Feature","properties":{"genre":"Trade cards","url":"http://devsceti.library.upenn.edu/kaplan_map/CityGalleries/web/tc_br25s25_4r_web.jpg","address":"Buffalo, NY","name":"Goodman: Reliable Clothier and Furnisher","tiff_locat":"tc_br25s25_4r.tif"},"geometry":{"type":"Point","coordinates":[-78.878367,42.886447]}},{"type":"Feature","properties":{"genre":"Trade cards","url":"http://devsceti.library.upenn.edu/kaplan_map/CityGalleries/web/tc_br19s4_3r_web.jpg","address":"New York, NY","name":"Allen's: American Mabille Varieties","tiff_locat":"tc_br19s4_3r.tif"},"geometry":{"type":"Point","coordinates":[-74.00597,40.714269]}},{"type":"Feature","properties":{"genre":"Trade cards","url":"http://devsceti.library.upenn.edu/kaplan_map/CityGalleries/web/tc_br11s1_2r_web.jpg","address":"Louisville, KY","name":"J.N. Schlessinger: Shoes and Slippers","tiff_locat":"tc_br11s1_2r.tif"},"geometry":{"type":"Point","coordinates":[-85.759408,38.254239]}},{"type":"Feature","properties":{"genre":"Trade cards","url":"http://devsceti.library.upenn.edu/kaplan_map/CityGalleries/web/tc_br1s10_1r_web.jpg","address":"Meriden, CT","name":"Baum & Bernstein: Clothiers and Merchant Tailors 1880-1","tiff_locat":"tc_br1s10_1r.tif"},"geometry":{"type":"Point","coordinates":[-72.807038,41.538146]}},{"type":"Feature","properties":{"genre":"Trade cards","url":"http://devsceti.library.upenn.edu/kaplan_map/CityGalleries/web/tc_br14s20_3r_web.jpg","address":"Boston, MA","name":"Spurr's: Papered Veneers and Marqueteries","tiff_locat":"tc_br14s20_3r.tif"},"geometry":{"type":"Point","coordinates":[-71.059766,42.358428]}},{"type":"Feature","properties":{"genre":"Trade cards","url":"http://devsceti.library.upenn.edu/kaplan_map/CityGalleries/web/tc_br10s8_3r_web.jpg","address":"Chicago, IL","name":"Florsheim Bros.: Fine Shoes (Button's Rave Gloss Shoe Dressing)","tiff_locat":"tc_br10s8_3r.tif"},"geometry":{"type":"Point","coordinates":[-87.650046,41.850027]}},{"type":"Feature","properties":{"genre":"Trade cards","url":"http://devsceti.library.upenn.edu/kaplan_map/CityGalleries/web/tc_br17s50_2r_web.jpg","address":"Newark, NJ","name":"Sternberg & Sherman: Clothing","tiff_locat":"tc_br17s50_2r.tif"},"geometry":{"type":"Point","coordinates":[-74.17237,40.735656]}},{"type":"Feature","properties":{"genre":"Trade cards","url":"http://devsceti.library.upenn.edu/kaplan_map/CityGalleries/web/tc_br24s18_5r_web.jpg","address":"Auburn, NY","name":"S. Rosenbloom & Sons: Leading Boot and Shoe House","tiff_locat":"tc_br24s18_5r.tif"},"geometry":{"type":"Point","coordinates":[-76.566049,42.931727]}},{"type":"Feature","properties":{"genre":"Trade cards","url":"http://devsceti.library.upenn.edu/kaplan_map/CityGalleries/web/tc_br13s28_2r_web.jpg","address":"Baltimore, MD","name":"Hutzler Brothers","tiff_locat":"tc_br13s28_2r.tif"},"geometry":{"type":"Point","coordinates":[-76.612188,39.29038]}},{"type":"Feature","properties":{"genre":"Trade cards","url":"http://devsceti.library.upenn.edu/kaplan_map/CityGalleries/web/tc_br15s7_2r_web.jpg","address":"Grand Rapids, MI","name":"Philip E. Newman & Co.: Boots & Shoes","tiff_locat":"tc_br15s7_2r.tif"},"geometry":{"type":"Point","coordinates":[-85.668089,42.963359]}},{"type":"Feature","properties":{"genre":"Trade cards","url":"http://devsceti.library.upenn.edu/kaplan_map/CityGalleries/web/tc_br18s3_2r_web.jpg","address":"Manhattan, NY","name":"Wolfsheim & Sachs Inc.: Manufacturers of Jewelry Cases, Trays and Novelties (A.B. Wright)","tiff_locat":"tc_br18s3_2r.tif"},"geometry":{"type":"Point","coordinates":[-74.00597,40.714269]}},{"type":"Feature","properties":{"genre":"Trade cards","url":"http://devsceti.library.upenn.edu/kaplan_map/CityGalleries/web/tc_br39s23_1r_web.jpg","address":"Connellsville, PA","name":"Jacob Goldsmith: Philadelphia Clothing House","tiff_locat":"tc_br39s23_1r.tif"},"geometry":{"type":"Point","coordinates":[-79.589479,40.017848]}},{"type":"Feature","properties":{"genre":"Trade cards","url":"http://devsceti.library.upenn.edu/kaplan_map/CityGalleries/web/tc_br9s44_4r_web.jpg","address":"Hartford, CT","name":"L. Mayer's: Shirt and Underwear Store","tiff_locat":"tc_br9s44_4r.tif"},"geometry":{"type":"Point","coordinates":[-72.68509,41.763707]}},{"type":"Feature","properties":{"genre":"Trade cards","url":"http://devsceti.library.upenn.edu/kaplan_map/CityGalleries/web/tc_br3s3_1r_web.jpg","address":"New York, NY","name":"Williams & Crosby: Wholesale Grocers","tiff_locat":"tc_br3s3_1r.tif"},"geometry":{"type":"Point","coordinates":[-74.00597,40.714269]}},{"type":"Feature","properties":{"genre":"Trade cards","url":"http://devsceti.library.upenn.edu/kaplan_map/CityGalleries/web/tc_br13s55_1r_web.jpg","address":"Richmond, VA","name":"Julius Meyer & Son: Dry goods, Notions, and Fancy Goods","tiff_locat":"tc_br13s55_1r.tif"},"geometry":{"type":"Point","coordinates":[-77.460259,37.553759]}},{"type":"Feature","properties":{"genre":"Trade cards","url":"http://devsceti.library.upenn.edu/kaplan_map/CityGalleries/web/tc_br39s55_2r_web.jpg","address":"Lancaster, PA","name":"Joseph's: Fancy Goods and Notions","tiff_locat":"tc_br39s55_2r.tif"},"geometry":{"type":"Point","coordinates":[-76.305509,40.037876]}},{"type":"Feature","properties":{"genre":"Trade cards","url":"http://devsceti.library.upenn.edu/kaplan_map/CityGalleries/web/tc_br2s2_1r_web.jpg","address":"Hartford, CT","name":"B. Ballerstein: Gents Furnishings","tiff_locat":"tc_br2s2_1r.tif"},"geometry":{"type":"Point","coordinates":[-72.68509,41.763707]}},{"type":"Feature","properties":{"genre":"Trade cards","url":"http://devsceti.library.upenn.edu/kaplan_map/CityGalleries/web/tc_br19s15_3r_web.jpg","address":"New York, NY","name":"E.C. Burt's: Fine Goods","tiff_locat":"tc_br19s15_3r.tif"},"geometry":{"type":"Point","coordinates":[-74.00597,40.714269]}},{"type":"Feature","properties":{"genre":"Trade cards","url":"http://devsceti.library.upenn.edu/kaplan_map/CityGalleries/web/tc_br28s17_4r_web.jpg","address":"Syracuse, NY","name":"Charles F. Saul: Seeds, Hardware, & C.","tiff_locat":"tc_br28s17_4r.tif"},"geometry":{"type":"Point","coordinates":[-76.14742,43.048118]}},{"type":"Feature","properties":{"genre":"Trade cards","url":"http://devsceti.library.upenn.edu/kaplan_map/CityGalleries/web/tc_br10s15_2r_web.jpg","address":"Chicago, IL","name":"Mandel Bro's: Notion Department","tiff_locat":"tc_br10s15_2r.tif"},"geometry":{"type":"Point","coordinates":[-87.650046,41.850027]}},{"type":"Feature","properties":{"genre":"Trade cards","url":"http://devsceti.library.upenn.edu/kaplan_map/CityGalleries/web/tc_br14s10_1r_web.jpg","address":"Boston, MA","name":"Wm. Filene: Ladies' & Children's Furnishing Goods","tiff_locat":"tc_br14s10_1r.tif"},"geometry":{"type":"Point","coordinates":[-71.059766,42.358428]}},{"type":"Feature","properties":{"genre":"Trade cards","url":"http://devsceti.library.upenn.edu/kaplan_map/CityGalleries/web/tc_br10s24_1r_web.jpg","address":"Chicago, IL","name":"Selz, Schwab & Co.: Selz \"Rock Bottom\" Shoes","tiff_locat":"tc_br10s24_1r.tif"},"geometry":{"type":"Point","coordinates":[-87.650046,41.850027]}},{"type":"Feature","properties":{"genre":"Trade cards","url":"http://devsceti.library.upenn.edu/kaplan_map/CityGalleries/web/tc_br24s7_2r_web.jpg","address":"Albany, NY","name":"Daniel Bachrach: Fancy Goods","tiff_locat":"tc_br24s7_2r.tif"},